port_name,port_id,port_lat,port_lon,port_iso3,continent,betweenness_centrality,k_core,hub_score,authority_score,pagerank_score,import_cluster,export_cluster,import_cluster_rolebased,export_cluster_rolebased
Abbot Point_Australia,port0,-19.89375524723548,148.0776204373203,AUS,AUST,0.0002652431310268579,119,0.001184360203694721,0.0012072604659786371,0.0008561880655847488,3,0,1,0
Abenra_Denmark,port1,55.04254248414652,9.42813655215102,DNK,EURO,0.0001761941648042464,105,0.00068236294868512,0.0006412964125069378,0.0007559996655702852,4,3,5,4
Aberdeen_U.S.A.,port2,46.96598222694922,-123.84775248396488,USA,NOAM,5.2489900338310584e-05,94,0.00042053461003755603,0.0005199107510340721,0.0004408637701782289,3,0,1,0
Aberdeen_United Kingdom,port3,57.139929119525945,-2.076616767568748,GBR,EURO,0.00032362756416281233,109,0.0007001944619474347,0.0008148924481489466,0.0008879014686922344,4,3,5,4
Abidjan_Cote d'Ivoire,port4,5.2839562225326215,-4.010908317124335,CIV,AFRI,0.0016381761665222056,119,0.0016560483415004612,0.0014150445843576903,0.0011812446278886364,0,1,4,1
Abu Zaby_United Arab Emirates,port5,24.61243287761508,54.563682995139125,ARE,ASIA,0.0007911785617250564,119,0.0013323397354426576,0.0014240916394387558,0.0010844550288186918,3,0,3,0
Acajutla_El Salvador,port6,13.575440073254065,-89.82967225900508,SLV,NOAM,0.0003780545542358847,111,0.0006540168611454151,0.000664647145429926,0.0006447299921945859,1,4,2,2
Acapulco_Mexico,port7,16.842818111519165,-99.87240809616472,MEX,NOAM,1.2280974147955487e-06,19,6.365203690727083e-05,5.652126082087085e-05,0.00018676900421727433,1,4,2,2
Ad Dakhla_Western Sahara,port8,23.667939507051656,-15.952673904063529,ESH,AFRI,9.09308381449399e-07,33,0.0001962260169207204,0.00018143589287015395,0.0002187016782153608,0,1,4,1
Aden_Yemen,port9,12.781865530225112,44.95494325096927,YEM,ASIA,0.00018617174784491577,117,0.0007650316544079027,0.0007633688951468655,0.000606020828260364,3,1,3,0
Agadir_Morocco,port10,30.438578346594785,-9.649161717511673,MAR,AFRI,0.00083439576670201,119,0.001117120080320027,0.0012388875941768019,0.0011245135442955428,0,1,4,1
Ahus_Sweden,port11,55.928800264546624,14.317943416693277,SWE,EURO,3.267861740813605e-05,98,0.00031642535207667587,0.0003814017699276506,0.0004631391770885682,4,3,5,4
Aiyion_Greece,port12,38.33552307655855,21.849965338077816,GRC,EURO,1.6526777769125614e-05,61,0.00017817786039719746,0.00025957476983508375,0.00036588017577949514,0,1,4,1
Ajman_United Arab Emirates,port13,25.419786837487603,55.45367849360017,ARE,ASIA,1.3975773505091936e-06,16,8.067210461633301e-05,7.07754643365063e-05,0.0001590152429371896,3,0,3,0
Akita-Funakawa Ko_Japan,port14,39.75669293322173,140.05619922398233,JPN,ASIA,0.00018638182882127656,116,0.0009181511692326718,0.0008475291968153242,0.0007579434108987589,3,0,1,0
Ako_Japan,port15,34.747410740749174,134.361613773323,JPN,ASIA,4.050224171377858e-06,82,0.00042645337106770416,0.00046298086874222344,0.0004929417710322619,3,0,1,0
Aktau Port_Kazakhstan,port16,43.60236745193146,51.22857007040978,KAZ,ASIA,2.6471937255260773e-05,22,5.594496202927196e-05,0.0001281008243087256,0.00032262899420077286,0,1,4,1
Akureyri_Iceland,port17,65.6950158237912,-18.095879490855825,ISL,EURO,5.1907273804119686e-05,66,0.00025532257427664007,0.00023225681611142745,0.0003401652700149905,4,3,5,4
Al Ahmadi_Yemen,port18,14.833115498793529,42.94343740943541,YEM,ASIA,0.00011925358295485125,99,0.0007028972922492826,0.00019294234969604072,0.00025417054156016717,3,1,3,0
Al Aqabah_Jordan,port19,29.45171188836525,34.958640737915914,JOR,ASIA,0.0007239193409226767,119,0.0013409872792184273,0.001354676851553357,0.0010270801802733664,3,1,3,0
Al Basrah_Iraq,port20,30.55796288018097,47.79778641264799,IRQ,ASIA,6.996453360038866e-07,6,2.0933968761486925e-05,2.3356345972872443e-05,0.0001382673700652664,3,0,3,0
Al Burayqah_Libya,port21,30.407066339237748,19.598362610129133,LBY,AFRI,6.930021443220202e-05,74,0.00034219673321422855,0.0003168441066004712,0.0003657752347946304,0,1,4,1
Al Hamriyah LPG Terminal_United Arab Emirates,port22,25.46752849165225,55.49501171707073,ARE,ASIA,0.0014915803456605789,119,0.0008605579555550804,0.0010773303662503328,0.0009386956032443959,3,0,3,0
Al Iskandariyh (Alexandria)_Egypt,port23,31.15536501576496,29.837590529759677,EGY,AFRI,0.004711535004211126,119,0.002025074578702963,0.0022665389167665917,0.0021719587309398576,0,1,4,1
Al Jubayl_Saudi Arabia,port24,27.055730142783407,49.6603902971205,SAU,ASIA,0.001843608777359627,119,0.00207102000807666,0.0018198088275750836,0.0013955571819629752,3,0,3,0
Al Kuwayt_Kuwait,port25,29.352105878846757,47.9238967749144,KWT,ASIA,0.0002697715549060395,109,0.0008439181875571522,0.0003603758631133293,0.0004234903661388394,3,0,3,0
Al Ladhiqiyah_Syria,port26,35.5235996489828,35.77044913528247,SYR,ASIA,3.217829524119791e-05,55,0.00025819523080600285,0.00025552610277324294,0.00030177169757082635,0,1,4,1
Al Mukalla_Yemen,port27,14.52061091372146,49.151230188282405,YEM,ASIA,8.12272709710514e-05,49,0.0002498737094335041,0.00022465986014692533,0.0003182524316744936,3,1,3,0
Albany_Australia,port28,-35.0340247742859,117.89715377479784,AUS,AUST,0.00012412092613647849,108,0.0005873249068509579,0.0006923522734777253,0.000578245434844371,3,0,1,0
Alborg_Denmark,port29,57.05441309328929,9.991278756609262,DNK,EURO,0.0002746919656425354,106,0.0007169986594217539,0.0007753823541049187,0.0009066438774587146,4,3,5,4
Alesund_Norway,port30,62.472833897864014,6.154027255882154,NOR,EURO,0.00020638456175040503,101,0.0005014010188222907,0.00046027537232124,0.0006017342925645896,4,3,5,4
Algeciras_Spain,port31,36.16592191437791,-5.414266527700274,ESP,EURO,0.005284883950642905,119,0.0023141842919687924,0.0024653724433060624,0.0023702446024279063,0,1,4,1
Alger_Algeria,port32,36.766686240592,3.066287649623686,DZA,AFRI,0.0002974829872673893,119,0.0010175879425794803,0.0008182619094698962,0.0007266824332058594,0,1,4,1
Aliaga_Turkey,port33,38.80383336268498,26.934998289101188,TUR,ASIA,0.0003618748910620698,119,0.0010033616849723186,0.0009530707853350767,0.0008072098310789091,0,1,4,1
Alicante_Spain,port34,38.33230794475335,-0.4912780063333981,ESP,EURO,0.0002612273151851795,115,0.0006913736974163493,0.0007825997728957378,0.0007307849939891168,0,1,4,1
Almeria_Spain,port35,36.83346066109046,-2.473846780759011,ESP,EURO,0.00021798297565218432,115,0.0007185820889950992,0.0007127562207973698,0.0006698452880393273,0,1,4,1
Alofi_Niue,port36,-19.0526751296352,-169.9200141092528,NIU,AUST,0.0,2,8.052969700178554e-08,5.119691544228224e-07,0.00011398176630400557,3,0,1,0
Alotoa_Papua New Guinea,port37,-10.31565512784391,150.45602470262926,PNG,AUST,0.00011355649930949925,27,4.2867180277650584e-05,0.00012670030634663723,0.00027596584988284284,3,0,1,0
Altamira_Mexico,port38,22.484096017261084,-97.88500211589354,MEX,NOAM,0.0011465430575416451,119,0.0009271671745397968,0.0011177928627219575,0.0011621816254526304,1,4,2,2
Alvika_Norway,port39,62.479172023733824,6.371692044629987,NOR,EURO,8.502836590195274e-06,58,0.0002036449920583499,0.00019406301580606716,0.0003566672631554717,4,3,5,4
Amagasaki_Japan,port40,34.7021310849604,135.36779525070185,JPN,ASIA,2.22352506453725e-05,96,0.0005903362595726683,0.0006726024155265329,0.0006126214568400089,3,0,1,0
Amamapare_Indonesia,port41,-4.806828832153477,136.80309025069434,IDN,ASIA,0.00019613550337780385,75,0.0003941619235695504,0.00045944768115793304,0.00046802101914342,3,0,1,0
Ambon_Indonesia,port42,-3.6775351946581054,128.175521606224,IDN,ASIA,4.3200373422104605e-05,36,0.00014712261420558872,0.00015431471077829921,0.0003788466076146851,3,0,1,0
Amirabad Port_Iran,port43,36.85068189237032,53.3652711274209,IRN,ASIA,6.282582221098205e-06,13,7.014155913684406e-06,4.1019251476379354e-05,0.0002541694352113081,0,1,4,1
Ampenan_Indonesia,port44,-8.664698797209562,116.0732048543842,IDN,ASIA,0.00011903276792691738,42,0.0002461300374587577,0.0001665118356166642,0.00039502479233529476,3,0,1,0
Amsterdam_Netherlands,port45,52.410361653244415,4.819634112054576,NLD,EURO,0.00935833792625447,119,0.00257538842019659,0.0024189026855647618,0.002651557488833758,4,3,5,4
Amuay (Bahia De Amuay)_Venezuela,port46,11.744585936633392,-70.20535531024714,VEN,SOAM,0.00015779716707461645,69,0.00039744534094347404,0.00024700487860967476,0.0003980840179295045,1,4,2,2
Anacortes_Canada,port47,48.48677700366743,-122.5688457058046,CAN,NOAM,1.694698334561363e-05,39,0.00018776176165001283,0.00010880501490958862,0.0002545211002196693,1,4,2,2
Anchorage_U.S.A.,port48,61.23279292047068,-149.87432856449828,USA,NOAM,2.5239422134030812e-05,50,0.000337962181291989,0.0002038732080083161,0.00023820800217432908,3,0,1,0
Ancona_Italy,port49,43.62166392882602,13.502097911255069,ITA,EURO,4.885741961719863e-05,85,0.00035000275974666166,0.00040724680378110157,0.00045544557771477295,0,1,4,1
Andoany_Madagascar,port50,-13.402618120424096,48.21470201927411,MDG,AFRI,0.0,4,3.723324500357645e-06,3.7872171885566756e-06,0.00015223758277321483,3,0,3,0
Andres (Andres LGN Terminal)_Dominican Republic,port51,18.418852961891663,-69.63329977621136,DOM,NOAM,0.00020009122326606772,78,0.00042306581736166086,0.0003770296214744909,0.0005281873556489101,1,4,2,2
Anguilla_Anguilla,port52,18.19750881388359,-63.09072719324261,AIA,NOAM,9.105402517958262e-06,21,3.032272674757689e-05,2.1208643323371765e-05,0.00028397497143262113,1,4,2,2
Annaba_Algeria,port53,36.896226293125856,7.767621789683287,DZA,AFRI,0.000149110504298689,119,0.0009101852845258321,0.0008815315255351183,0.0007181942951100176,0,1,4,1
Antalya_Turkey,port54,36.83889937153965,30.606200657497823,TUR,ASIA,0.0003221203776871137,110,0.0006469820433630762,0.0006864982941696181,0.0007055448286377282,0,1,4,1
Antisranana_Madagascar,port55,-12.26905590898271,49.28869018643424,MDG,AFRI,0.00017616218054983482,22,7.891675906385873e-05,6.936622799914666e-05,0.0002540541438207878,3,0,3,0
Antofagasta_Chile,port56,-23.6509440933457,-70.4048979191415,CHL,SOAM,9.77529128644861e-05,86,0.0005491828656460999,0.00022953689716420574,0.0003756895932158976,1,4,2,2
Antwerp_Belgium,port57,51.27935494428036,4.3178023106669565,BEL,EURO,0.022681726099992323,119,0.0031819598487505506,0.0031614680618687867,0.003528650821861447,4,3,5,4
Anzali Port_Iran,port58,37.47515153180458,49.46995908054619,IRN,ASIA,1.4471230141239161e-05,15,3.810668615908094e-05,3.7306509573561446e-05,0.0002756403038554973,0,1,4,1
Aomori Ko_Japan,port59,40.84225958281791,140.76030679555507,JPN,ASIA,5.26922945158978e-05,92,0.0005642873151840162,0.00042679871021906974,0.0004392326483292657,3,0,1,0
Apia_Samoa,port60,-13.826069430292684,-171.76023176326615,WSM,AUST,0.0012705226714095907,22,9.772789300000891e-05,5.797851836628223e-05,0.00021183946121746682,3,0,1,0
Apra Harbor_Guam,port61,13.460281696281312,144.6753643183448,GUM,AUST,0.001131138908305285,60,0.00035863401164895424,0.0002863022253590684,0.0005167431311546658,3,0,1,0
Aratu_Brazil,port62,-12.783450461896129,-38.487990580516495,BRA,SOAM,0.0007337813342534576,119,0.0011857234574680698,0.001320171292845951,0.0011472435723056172,1,4,2,2
Arawak_Barbados,port63,13.286761529608045,-59.64823156661467,BRB,NOAM,3.9124237517302836e-05,21,4.290619282154301e-05,1.425130789795138e-05,0.0001924890217236994,1,4,2,2
Ardalstangen_Norway,port64,61.23559149594584,7.709705946012606,NOR,EURO,3.528051452204026e-05,77,0.00038242372069380515,0.00027191965709424064,0.00031421284422011885,4,3,5,4
Ardel_Norway,port65,59.14645139040963,6.17070503494007,NOR,EURO,6.52898900569508e-06,59,0.00020080845530198198,0.00017969068954839284,0.00034524379446132286,4,3,5,4
Argentia_Canada,port66,47.33890642242393,-53.93354604064832,CAN,NOAM,7.77568326676419e-05,52,0.00013546439052961984,0.000241808269018404,0.00031562149167094444,1,4,2,2
Arhus_Denmark,port67,56.15113462998881,10.229250698962224,DNK,EURO,0.0005168035184575766,109,0.0008079720597744271,0.0009386168493859911,0.0010318690150053554,4,3,5,4
Arkhangels'k_Russia,port68,64.52521693626386,40.67633317154201,RUS,EURO,0.0005441493994046316,101,0.0004631199838422061,0.0005388671157066215,0.0006855870974299357,4,3,5,4
Arrecife_Spain,port69,28.969362500848344,-13.528071820397091,ESP,EURO,1.1457890514059581e-05,36,0.00021715622140379217,0.0001718833006032558,0.00022004149127445035,0,1,4,1
Arzew El Djedid_Algeria,port70,35.819235019961766,-0.2676223049533486,DZA,AFRI,0.0009688134761470309,119,0.0014825322672591722,0.001364766950184063,0.0011016602222924192,0,1,4,1
As Suways_Egypt,port71,29.951008333267044,32.530639213840544,EGY,AFRI,8.819892685893137e-06,31,0.00014045468223682146,0.00011262610873179871,0.00021939036938731286,3,1,3,0
Ash Shariqah_United Arab Emirates,port72,25.36312734816629,55.37623328593752,ARE,ASIA,0.0008003251433499145,119,0.0008981077738170217,0.000914868268330132,0.0008500485281273758,3,0,3,0
Ashdod_Israel,port73,31.836309090305807,34.66849997824742,ISR,ASIA,0.0006774737828548671,119,0.0012008248324715455,0.0012955871643918072,0.0010697396307073612,0,1,4,1
Ashqelon_Israel,port74,31.64077392057513,34.539134412717075,ISR,ASIA,2.5240094202687174e-05,66,0.0004291511288958204,0.00021714118274734182,0.0002700068557419455,0,1,4,1
Aspropirgos_Greece,port75,38.02421336708783,23.598511114472505,GRC,EURO,0.00010685771353689255,95,0.00048695671935587503,0.0005530218965683547,0.0006288036101518121,0,1,4,1
Astrakhan Port_Russia,port76,46.384677231114935,48.02158851082925,RUS,EURO,3.622779338938775e-05,21,4.1407614425505413e-05,8.450408920069069e-05,0.00033450490733189544,0,1,4,1
Atapupu_Indonesia,port77,-8.995671715587443,124.86262151917973,IDN,ASIA,8.907010013168682e-07,12,1.924468068096414e-05,2.0182444772636677e-05,0.00016186105240802,3,0,1,0
Auckland_New Zealand,port79,-36.84280038036584,174.7739520335586,NZL,AUST,0.0015375251957560267,100,0.0005459511036811615,0.000668832969079378,0.0008497709070360142,3,0,1,0
Augusta_Italy,port80,37.19392264018573,15.183932202418,ITA,EURO,0.0004292793820160201,119,0.0009741224249354755,0.0009245060681058635,0.0008752330110876914,0,1,4,1
Avatiu_Cook Islands,port81,-21.203864577292663,-159.78427429202117,COK,AUST,0.00019719828713736105,10,1.4415003116471533e-05,1.530230639928287e-05,0.0002604630108943381,3,0,1,0
Aveiro_Portugal,port82,40.62981430875655,-8.719994045734829,PRT,EURO,0.001207875216304394,119,0.0013989061674694815,0.0014073399672787303,0.0013088086024137717,4,3,5,4
Aviles_Spain,port83,43.56425940172685,-5.894390534895371,ESP,EURO,0.0004766263698155628,117,0.0008857003101755777,0.0008958789813490913,0.0007981126625889822,4,3,5,4
Avonmouth_United Kingdom,port84,51.498120816550205,-2.708767368142706,GBR,EURO,0.0009901869334098938,119,0.001188686675628978,0.0013209416344418543,0.0011227365698906603,4,3,5,4
Az Zawiya_Libya,port85,32.78550355961522,12.700008451912137,LBY,AFRI,2.575684596567888e-05,73,0.0003472294197890059,0.0004062468416490686,0.00038295604444200297,0,1,4,1
Bahai De La Habana_Cuba,port86,23.12766954941444,-82.33371674830617,CUB,NOAM,0.0003263467292821922,89,0.0004775339203855282,0.0005150715145563653,0.0005662686569090358,1,4,2,2
Bahia De Las Minas_Panama,port87,9.389723107087091,-79.820355936773,PAN,NOAM,2.3012806629464526e-05,55,0.0002433626270644453,0.0001715390035429539,0.00031817003924820885,1,4,2,2
Bahia De Matarani_Peru,port88,-17.004633413175803,-72.10778779112583,PER,SOAM,0.00014234654995219097,89,0.0005663425446321394,0.00036339810210966937,0.0005269922993222086,1,4,2,2
Bahia De Valparaiso_Chile,port89,-33.033243809773886,-71.62773895334489,CHL,SOAM,0.00022688158412231363,86,0.00038511390532491196,0.00037388442329756735,0.0005257273343319332,1,4,2,2
Bahia Quintero (Ventanas)_Chile,port90,-32.766963132610016,-71.48395103962916,CHL,SOAM,0.00047412096919308356,116,0.0009750412869201964,0.0006434954836237804,0.0006607870535927067,1,4,2,2
Bahia San Nicolas_Peru,port91,-15.258178768541931,-75.2394926674042,PER,SOAM,7.691123774900316e-06,51,0.00018809746489518924,0.0004516797177652097,0.0003461366317105641,3,0,1,0
Bahia San Vicente_Chile,port92,-36.7428769892689,-73.12199870128266,CHL,SOAM,0.00018919154035019003,95,0.000600818147216895,0.0005296471602884653,0.0005605988165063575,1,4,2,2
Baie Comeau_Canada,port93,49.248035518480016,-68.1413618900073,CAN,NOAM,0.00036677900524315337,93,0.0004335901226263561,0.0004388656889248006,0.0005270701162367272,1,4,2,2
Baie De Kouaoua_New Caledonia,port94,-21.40031540352841,165.83300090986396,NCL,AUST,2.5983319027852084e-07,6,3.0429539860973382e-05,2.6121348823263402e-05,0.00013816495089190192,3,0,1,0
Baie Du Marigot_Saint Martin,port95,18.082213018876576,-63.0830929174822,MAF,EURO,5.602697596781705e-05,28,6.0806200827219865e-05,4.7047881557738414e-05,0.0002948114711046221,1,4,2,2
Baie Ugue_New Caledonia,port97,-21.147517395795628,165.55688218769163,NCL,AUST,5.145897266786226e-07,23,8.888144301816566e-05,0.00016528443194276842,0.00018356284414137997,3,0,1,0
Bajo Grande_Venezuela,port98,10.458288867044963,-71.58177702352522,VEN,SOAM,7.137912555628433e-05,38,0.00017213404511645409,0.00014403029400723594,0.0002556434282551731,1,4,2,2
Bakar_Croatia,port99,45.28954046493869,14.54213223513064,HRV,EURO,3.7770192181638107e-06,48,0.00022620294783840518,0.00022745068114282682,0.00027738121287079255,0,1,4,1
Baku Port_Azerbaijan,port100,40.28461052178386,49.73252397385357,AZE,ASIA,8.540753833920465e-05,26,9.483325109928327e-05,0.00015747566939167243,0.00037927321949663876,0,1,4,1
Balboa_Panama,port101,8.955321949548559,-79.56547193480111,PAN,NOAM,0.0009415532841234639,112,0.0008531073409860455,0.0009107553836656016,0.0009753248784278874,1,4,2,2
Balikpapa_Indonesia,port102,-1.202534485771115,116.79597995074931,IDN,ASIA,0.001980787432984731,119,0.001074855944837907,0.001216504648878799,0.0011046386088226076,3,0,1,0
Baltimore_U.S.A.,port103,39.25976037081696,-76.5569732963815,USA,NOAM,0.0034747258853066254,119,0.00179514065858511,0.0018214291615807204,0.001721504883322133,1,4,2,2
Baltiysk_Russia,port104,54.637713755980485,19.924015922973165,RUS,EURO,2.593185733864167e-05,53,0.00024269507694550167,0.00024677621175525096,0.000257116059107017,4,3,5,4
Bamdar-E Pars Terminal_Iran,port105,27.56361956145379,52.51242997929695,IRN,ASIA,0.00014535342135555624,53,0.00025061814320270315,0.000326194153841686,0.00038825697042404794,3,0,3,0
Bamdar-E Shahid Reajie_Iran,port106,27.13960482337843,56.06282678889619,IRN,ASIA,0.0002937497722714074,110,0.0007474262950358534,0.000728223053772171,0.0006142471567725286,3,0,3,0
Bandar Abbas_Iran,port107,27.147500083635308,56.20294512451077,IRN,ASIA,7.027972991188534e-06,16,6.534177661191755e-05,7.837375558019027e-05,0.00020451259604685788,3,0,3,0
Bandar Khomeyni_Iran,port108,30.43566470413471,49.06761425480435,IRN,ASIA,0.00027993814114792877,110,0.0007319147967338792,0.0006372371532692797,0.0005980052694828216,3,0,3,0
Bandirma_Turkey,port109,40.35306462487847,27.957743342669197,TUR,ASIA,0.0006899180252726231,119,0.0009755991587506906,0.0009552917790681087,0.0008769735883075702,0,1,4,1
Banghazi_Libya,port110,32.111525403784455,20.04737391653894,LBY,AFRI,0.00015670301910118063,106,0.0006352488630388711,0.0005944192319242885,0.000579487615872891,0,1,4,1
Bangkok_Thailand,port111,13.68350932327134,100.57258442370488,THA,ASIA,0.0014656256709744508,119,0.001485973130267387,0.0012761609170744994,0.0011346081160799268,3,0,1,0
Banjarmasin_Indonesia,port112,-3.288021407502162,114.562926975146,IDN,ASIA,4.8266542736005994e-05,44,0.00022432250665012544,0.0002410554871475493,0.000397758811542758,3,0,1,0
Banjul_Gambia,port113,13.444435523904422,-16.57415168473741,GMB,AFRI,7.694799382278006e-05,81,0.000444745398684311,0.0002861737947086378,0.0003444955970509524,0,1,4,1
Banten_Indonesia,port114,-6.016931807924585,105.9675675868184,IDN,ASIA,0.0032372743311173922,119,0.002032255510987862,0.001826932125982427,0.0015020589703331616,3,0,1,0
Banzart_Tunisia,port115,37.2599330125266,9.873087665943745,TUN,AFRI,0.00037737593339890303,119,0.0010140705049326174,0.0010601676756897594,0.000932639022802593,0,1,4,1
Bar_Montenegro,port116,42.0884991167346,19.08454827961692,MNE,EURO,5.5032097043797e-05,99,0.0004918217716912655,0.0005187484892679069,0.0005353673545490462,0,1,4,1
Barbor's Point_U.S.A.,port117,21.310519704249263,-158.10402873940228,USA,NOAM,0.00028217369514356,95,0.00044991414008638774,0.0006144175329889917,0.0005318341034418549,3,0,1,0
Barcelona_Spain,port118,41.3379783937254,2.1464898987441767,ESP,EURO,0.004300627457498185,119,0.002182194212007799,0.0021506752617946904,0.0020044481246703793,0,1,4,1
Bari_Italy,port119,41.13754541632616,16.86739092552446,ITA,EURO,0.00018354378948180224,108,0.0006116941773904647,0.0006540355582357266,0.0006821722794424726,0,1,4,1
Barranquilla_Colombia,port120,10.995983140657987,-74.77946096592984,COL,SOAM,0.0016648058812650053,119,0.0011024133864826113,0.0008028760481111199,0.0009965063416355027,1,4,2,2
Barry_United Kingdom,port121,51.40467254850867,-3.247119292011909,GBR,EURO,3.7209288911691674e-06,44,0.0001949151052620981,0.0002129091490047915,0.00027532691614189797,4,3,5,4
Basseterre_Saint Kitts and Nevis,port122,17.287356483257454,-62.70846699294254,KNA,NOAM,6.77519813920883e-05,38,0.00010069586560008037,9.749704027912527e-05,0.0003956399797470542,1,4,2,2
Basuo_China,port123,19.078696121909807,108.62935289518325,CHN,ASIA,3.653411090316127e-05,90,0.0006129624726227558,0.0005999201287460825,0.0004668166187320786,3,0,1,0
Bata_Equatorial Guinea,port124,1.8256259158615709,9.739146967804762,GNQ,AFRI,4.120570691324903e-05,57,0.00028005379081011287,0.0002124363161795078,0.0002853979535183758,0,1,4,1
Batangas City_Philippines,port125,13.744770919004338,121.02391729422052,PHL,ASIA,0.0022926672358725567,119,0.0014075309605587902,0.001253063786372323,0.0010337127815602874,3,0,1,0
Baton Rouge_U.S.A.,port126,30.43704677406407,-91.20632260986044,USA,NOAM,0.0002718479421518927,112,0.00076481061610959,0.0006211368830480072,0.0006445760261317747,1,4,2,2
Batumi_Georgia,port127,41.64860022096488,41.66863523330386,GEO,ASIA,4.524792332748921e-05,88,0.0004307064161672884,0.00047266650856677426,0.0005241311412524297,0,1,4,1
Baubau_Indonesia,port128,-5.486087461907852,122.58437959230407,IDN,ASIA,2.5326521632627583e-05,27,0.0001051347535777135,0.00010284652171297454,0.0003044844486496527,3,0,1,0
Bautino_Kazakhstan,port129,44.55577479440848,50.258979144322126,KAZ,ASIA,2.4481683096881967e-06,16,4.128633717626477e-05,8.08030213149877e-05,0.00020310117819907184,0,1,4,1
Bay City_U.S.A.,port130,43.625805916726414,-83.85025341521418,USA,NOAM,0.0003897417754616138,25,8.605662537149412e-05,8.53669705618808e-05,0.0003194038730696349,1,4,2,2
Bayonne_France,port131,43.5282532182009,-1.497927788649937,FRA,EURO,0.00020007055734301357,112,0.0007889866304380848,0.0008312296469752239,0.0007991798461115851,4,3,5,4
Bayrut_Lebanon,port132,33.90234183027919,35.528526262145526,LBN,ASIA,0.0005741220862330575,119,0.0009011997087278103,0.001066431344554933,0.001029476330020036,0,1,4,1
Bayuquan_China,port133,40.26512999668255,122.06684214776212,CHN,ASIA,0.0022342828868618654,119,0.002219603034810096,0.002120418669520671,0.0016512159040220384,3,0,1,0
Beaumont_U.S.A.,port134,30.025823215444778,-94.03028275477728,USA,NOAM,0.002278346265660095,119,0.0016501433978561822,0.0015742825149313291,0.0015699662402270703,1,4,2,2
Bedyansk_Ukraine,port135,46.75247146163188,36.77656918184283,UKR,EURO,5.062348525088201e-05,90,0.00046220660306487793,0.0005396973074642689,0.0005533288992219639,0,1,4,1
Beihai_China,port136,21.47255147905038,109.06715220452972,CHN,ASIA,0.0011584771315420082,119,0.0012412308878604283,0.0011940595589878568,0.0009361359062866446,3,0,1,0
Beira_Mozambique,port137,-19.81107039891208,34.83983894902818,MOZ,AFRI,0.0004802975410278486,119,0.0009361896819429824,0.0009899391594515208,0.0007656112173191769,3,0,3,0
Bejaia_Algeria,port138,36.74560771788988,5.082295103457128,DZA,AFRI,0.0002664273313197328,119,0.0009273803558783613,0.0009940892842693983,0.0008679758520910745,0,1,4,1
Belawan_Indonesia,port139,3.7885427096548674,98.70736597595844,IDN,ASIA,0.00044462234658772964,109,0.0007150077577849609,0.0007013207230920561,0.0006377567877948964,3,0,1,0
Belem_Brazil,port140,-1.5006902145017782,-48.65985859706124,BRA,SOAM,0.0031463838047111866,119,0.001750346950943686,0.0018831184338620535,0.001741249926717431,1,4,2,2
Belfast_United Kingdom,port141,54.62301837773251,-5.8924796020470485,GBR,EURO,0.0016971877298340885,117,0.0011771751056176944,0.0013037780932920974,0.0014740665469305553,4,3,5,4
Belize City_Belize,port142,17.481496584328426,-88.20242778379423,BLZ,NOAM,9.236038578275873e-06,30,0.00012841263850309006,0.00011058165626563318,0.00022897507812066252,1,4,2,2
Bellingham_U.S.A.,port143,48.75638842190907,-122.50025501330772,USA,NOAM,8.188440167585396e-07,11,3.748255331772946e-05,9.129371981170752e-05,0.00015893386776564031,3,0,1,0
Benicia_U.S.A.,port144,38.052037097690985,-122.13192177950889,USA,NOAM,9.386715504330156e-05,75,0.0003967771255772583,0.00038720007818190223,0.00043219872534582617,3,4,1,0
Benoa_Indonesia,port145,-8.631208267485626,115.35346016852203,IDN,ASIA,9.0704537673776e-05,34,0.00013734369498952508,9.83985909092596e-05,0.0003296061760914915,3,0,1,0
Berbera_Somalia,port146,10.432942700630932,44.99697910139347,SOM,AFRI,5.159601911938712e-05,65,0.0003349252093242539,0.0003595329470845517,0.0003710586979911615,3,1,3,0
Bergen_Norway,port147,60.40161129699588,5.227007273111375,NOR,EURO,0.00019468904219513506,100,0.0004892419138691824,0.0004658754825068384,0.000681029652940599,4,3,5,4
Big Creek_Belize,port148,16.515396038647605,-88.40363899597536,BLZ,NOAM,1.539719535113045e-05,45,0.00011484866787001307,0.00023708799555015254,0.0003338616650842291,1,4,2,2
Bintulu Port_Malaysia,port149,3.2710235494794717,113.0774259511892,MYS,ASIA,0.00040733444520842836,119,0.0009487638514713915,0.0008869252564416118,0.0007069289193941643,3,0,1,0
Bissau_Guinea-Bissau,port150,11.85997214110824,-15.576180497537528,GNB,AFRI,5.699115700920981e-05,58,0.0003437941054426665,0.00021828476070619198,0.0002899576896034129,0,1,4,1
Bitung_Indonesia,port151,1.440344333251906,125.17686848697424,IDN,ASIA,0.0003816934716169033,78,0.00044737166576849633,0.0004978757779207191,0.0006027188222399538,3,0,1,0
Blanglancang_Indonesia,port152,5.230939805842524,97.06571881030696,IDN,ASIA,6.26096590590645e-06,15,5.751065555095716e-05,7.714835812379509e-05,0.00019067238630884187,3,0,1,0
Bluff Harbor_New Zealand,port153,-46.59012995146856,168.3602159828519,NZL,AUST,5.3448724325823455e-05,67,0.00022663609083955206,0.00044657007360344027,0.0004894755368468148,3,0,1,0
Bohai Bay_China,port154,38.32313122558751,117.86724447634192,CHN,ASIA,0.0008630411338496111,119,0.0015475562708448989,0.0016515377436727777,0.0012728636220828528,3,0,1,0
Bonny_Nigeria,port155,4.420690387691537,7.157020931593515,NGA,AFRI,9.703403212104755e-05,106,0.0007478408036061988,0.0007795106017821114,0.0006086960059956804,3,1,3,0
Bontang LNG Terminal_Indonesia,port156,0.0968865572556536,117.49256737222484,IDN,ASIA,0.0009464119395168556,119,0.0012251728747538564,0.0011478293230759284,0.0010456507824391818,3,0,1,0
Boosaaso_Somalia,port157,11.290612296293288,49.18112782930411,SOM,AFRI,1.3453907866199654e-05,29,0.000135035641809413,9.842062942663231e-05,0.00021218693568627808,3,1,3,0
Bordeaux_France,port158,44.90197412057662,-0.5339666947472987,FRA,EURO,0.00014249556442029164,110,0.0007711382068220563,0.0007136193939996603,0.0006457187738985261,4,3,5,4
Boston_U.S.A.,port159,42.37717521495631,-71.03617153597182,USA,NOAM,0.00023444280329352988,108,0.000695386227155734,0.0004533931463821643,0.0005461508640424392,1,4,2,2
Boston_United Kingdom,port160,52.96306208085296,-0.0142532557475205,GBR,EURO,5.734456930564968e-05,104,0.0005151971689809066,0.0005021526774649633,0.0005641121597785809,4,3,5,4
Botany Bay_Australia,port161,-33.98153450901857,151.2158951934467,AUS,AUST,0.00072192731681438,111,0.0008857592775948389,0.0007737414910611718,0.0007201756287343403,3,0,1,0
Botas Natural Gas Terminal_Turkey,port163,40.99579640471416,27.961504119191023,TUR,ASIA,0.0007378303289054278,119,0.0008647780609127299,0.0010885675586878893,0.0009452458934721646,0,1,4,1
Botas_Turkey,port162,36.8767157643925,35.918572725092474,TUR,ASIA,0.0002471771476483975,111,0.0006780222633113192,0.0006769075051034872,0.0006160632873371578,0,1,4,1
Brades_Montserrat,port164,16.803379328533115,-62.20515712319607,MSR,NOAM,1.608553917708195e-05,20,1.6794751595239122e-05,1.916560180371775e-05,0.00025228813366271694,1,4,2,2
Brake_Germany,port165,53.34359213320283,8.489910105536774,DEU,EURO,0.001657571442036619,118,0.0013409171213612085,0.0013017776452428555,0.0013971444907957674,4,3,5,4
Brasil Port_Brazil,port166,-21.850656211930808,-41.01992427396906,BRA,SOAM,0.0002766915785898711,61,0.0003123115562910849,0.00030787423116038687,0.00040106112232218583,1,4,2,2
Bremen_Germany,port167,53.094765459023336,8.777095691174901,DEU,EURO,0.0018823683697387651,119,0.001417937039484055,0.0013736605570127327,0.0015208072406104817,4,3,5,4
Bremerhaven_Germany,port168,53.54944124151818,8.555056667114231,DEU,EURO,0.0023884132032011567,119,0.0014707464608233205,0.0013998658307679988,0.0015536819626204104,4,3,5,4
Brevik_Norway,port169,59.06385806269804,9.692281148463389,NOR,EURO,3.292014251595531e-05,86,0.0003879994421036354,0.0003158866032380313,0.00045418104634608496,4,3,5,4
Bridgeport_U.S.A.,port170,41.16904771326829,-73.16965077217706,USA,NOAM,0.0,4,2.3442244274792793e-06,2.2211988601038144e-05,0.00012458137834716072,1,4,2,2
Bridgetown_Barbados,port171,13.106614945986191,-59.627447909713226,BRB,NOAM,0.0005051593371436914,65,0.00021938717722587664,0.0002680570345267114,0.0006534570457408822,1,4,2,2
Brighton_Trinidad and Tobago,port172,10.247171242678524,-61.629761615539984,TTO,NOAM,6.397347818105533e-05,28,0.00013783167356504582,0.00010323701016977109,0.00025854868974949156,1,4,2,2
Brindisi_Italy,port173,40.64050446445633,17.981096877298484,ITA,EURO,0.00018400677889591328,108,0.0006491001587388964,0.0006067539468622127,0.0005952551046821314,0,1,4,1
Brisbane_Australia,port174,-27.40850097251321,153.14558323614085,AUS,AUST,0.0015906506260435873,119,0.0013846279848476614,0.0014255424086765907,0.0013283674161301904,3,0,1,0
Brofjorden_Sweden,port175,58.34819267239734,11.425689144516952,SWE,EURO,0.00018045322262654897,105,0.0006846112108046322,0.0006662486593394834,0.0007003687433145347,4,3,5,4
Broome_Australia,port176,-18.000500198595883,122.20673937075571,AUS,AUST,5.635599501210518e-06,38,0.00017950503453278055,0.0002259720775028681,0.0002468471098083256,3,0,1,0
Brownsville_U.S.A.,port177,25.95858284808265,-97.38156647318829,USA,NOAM,0.0006810584058127338,112,0.00048474268343975415,0.000801045833097945,0.00072796872232639,1,4,2,2
Bruges_Belgium,port178,51.2450409297701,3.213400884222017,BEL,EURO,4.7739334889557896e-05,101,0.00043796227279299855,0.0005017420274814134,0.0005368177558019836,4,3,5,4
Brunsbuttel Elbahafen_Germany,port179,53.90367488220769,9.185432327426682,DEU,EURO,0.0013945303421292095,117,0.0012119368488372586,0.0012172549813618532,0.0013198525079081542,4,3,5,4
Brunswick_U.S.A.,port180,31.1318521684773,-81.51967885646486,USA,NOAM,0.00014552640986933643,93,0.0005014606885996376,0.00041436281904390154,0.0005383485106592862,1,4,2,2
Buchanan_Liberia,port181,5.865644367093736,-10.044098007798176,LBR,AFRI,9.483096511925367e-05,72,0.0004333401616835825,0.00015745051539014593,0.0002463943890138838,0,1,4,1
Buco_Philippines,port182,8.5174927667304,124.75294697853924,PHL,ASIA,0.00017585422510010056,66,0.00038297006806411045,0.0003342258841509695,0.00037539488099611355,3,0,1,0
Buenaventura_Colombia,port183,3.8943885656037103,-77.06649613467158,COL,SOAM,0.000694164649345316,117,0.0009141468353770201,0.0008284189448290239,0.0008140020003696976,1,4,2,2
Buenos Aires_Argentina,port184,-34.61975015240211,-58.35237171266093,ARG,SOAM,0.0001092096069697809,87,0.00044003753554517364,0.0005202102968367581,0.0005667106452646659,1,4,2,2
Buffington_U.S.A.,port185,41.64111669140838,-87.41011483885627,USA,NOAM,7.432001735701588e-07,16,4.667022148492247e-06,1.1491904902813287e-05,0.0002908205504884447,1,4,2,2
Buka_Papua New Guinea,port186,-5.432204414433994,154.67173258092996,PNG,AUST,1.4802700963266741e-06,6,6.475771187916068e-06,6.348572252704825e-06,0.00019459250739309986,3,0,1,0
Bukhta Vanino_Russia,port187,49.09019680829846,140.300631210434,RUS,EURO,0.0007731642476535517,119,0.0016214637528605828,0.0013793250711781546,0.0010792430564247456,3,0,1,0
Bukhta nagayeva (Nagadan)_Russia,port188,59.56379639224711,150.72654439596232,RUS,EURO,8.098645047767195e-07,18,9.543540943860968e-05,0.00011126350507956968,0.00016721420758494706,3,0,1,0
Bullen Baai_Curacao,port189,12.1894172120367,-69.02057948025225,CUW,NOAM,1.4453091332852384e-05,22,7.804013082184236e-05,6.28858012753721e-05,0.00020181379750067266,1,4,2,2
Bunbury_Australia,port190,-33.322300045531605,115.66453747206656,AUS,AUST,0.0008023948362839595,119,0.0010343166792545209,0.0015542364993984805,0.0011748182414868962,3,0,1,0
Bur Safago_Egypt,port191,26.725555514982844,33.94223110377931,EGY,AFRI,0.00010740588465383839,86,0.0004447562821594809,0.00036727004196343414,0.00038934322033975935,3,1,3,0
Bur Said (Port Said)_Egypt,port192,31.249586292483176,32.30771942243283,EGY,AFRI,0.0014418994576876956,119,0.0013968767508387373,0.0011615031221687948,0.0010345353220701907,0,1,4,1
Burgas_Bulgaria,port193,42.46948481439915,27.482266275708785,BGR,EURO,0.0016482234630497458,119,0.0013408600840855306,0.0012726464178298455,0.001266226206861271,0,1,4,1
Burnie_Australia,port194,-41.05338928770309,145.91063784867032,AUS,AUST,4.0639397272572554e-05,61,0.00027594696329843034,0.0003092411968173617,0.00035499211861921134,3,0,1,0
Burns Harbor_U.S.A.,port195,41.632564478400994,-87.14127024119269,USA,NOAM,0.000655664968307549,39,0.00015142056109954558,0.00016878635860906012,0.0004702529566806927,1,4,2,2
Bushehr_Iran,port196,28.99153747318409,50.83467263434516,IRN,ASIA,8.221664322822118e-05,36,0.00017821850156142275,0.00015321096772942337,0.00028430586578429495,3,0,3,0
Butinge Oil Terminal_Lithuania,port197,56.059828848668,21.10657671231628,LTU,EURO,9.281062210899665e-07,15,5.097856291979489e-05,6.878886887202484e-05,0.0001575841591721614,0,1,4,1
Butuan City_Philippines,port198,9.276185803240052,125.50936292725692,PHL,ASIA,1.5732173477332865e-05,11,4.068181586070491e-05,4.986318241457807e-05,0.00015176703603461095,3,0,1,0
Cabanas_Cuba,port199,22.672317368006475,-83.96757209549071,CUB,NOAM,0.0,1,1.4622169939714594e-06,1.533197050309472e-06,0.00011562398264992649,1,4,2,2
Cabedelo_Brazil,port200,-6.969397877412017,-34.83954753055635,BRA,SOAM,2.009365798532275e-05,48,0.0002688894004933362,0.0001930279867785666,0.0003028744262426951,1,4,2,2
Cadiz_Spain,port201,36.52041019477181,-6.263758649279311,ESP,EURO,0.0008462641765469241,119,0.0011010046158971955,0.0010628355480526497,0.0009778647413300119,0,1,4,1
Cagatan De Oro_Philippines,port202,8.486794082629675,124.70830127285822,PHL,ASIA,0.0004117800604201096,97,0.0006748518991647861,0.0005294171844397959,0.0005103539663008766,3,0,1,0
Cagliari_Italy,port203,39.23143382756004,9.08468701930715,ITA,EURO,0.0005229266807899258,118,0.0008970301738095908,0.0008298197481910221,0.0008432161002014225,0,1,4,1
Cairns_Australia,port204,-16.941215682060164,145.77319948948178,AUS,AUST,7.162699380513165e-05,66,0.000387641457484749,0.0002913074435163738,0.0003405508567627813,3,0,1,0
Calabar_Nigeria,port205,5.007882924271452,8.325139169155197,NGA,AFRI,2.8936096608584233e-05,59,0.000364196568362752,0.00013239761500017072,0.00022918374882879025,0,1,4,1
Calais_France,port206,50.96799703489637,1.8760836620961112,FRA,EURO,8.355735413390712e-05,101,0.0004918688002162201,0.00047226859172807314,0.0004937827276887525,4,3,5,4
Calcutta_India,port207,22.535744012635703,88.29958110960771,IND,ASIA,7.796130838045483e-05,66,0.0004410854264597268,0.0003210292261819447,0.0003356755461555967,3,0,3,0
Caleta Patillos_Chile,port208,-20.786540511121714,-70.19493410751362,CHL,SOAM,0.00023628279686445082,95,0.0006902792489522298,0.0002252208982793257,0.0003686278070756196,1,4,2,2
Calumet Harbor_U.S.A.,port209,41.68270147934292,-87.55852757847056,USA,NOAM,0.0002133272624641141,26,6.692310454672314e-05,9.530280813315708e-05,0.00048648570752131816,1,4,2,2
Campana_Argentina,port210,-34.15942510661493,-58.94803117397062,ARG,SOAM,0.0002763505292231077,110,0.0006598517969573922,0.0007266766708150194,0.0007481699381695574,1,4,2,2
Canaport (St. John)_Canada,port211,45.21338637894184,-65.98533042919031,CAN,NOAM,3.58786729328678e-05,77,0.00047349872747149286,0.0003413818286977345,0.00033372774322214683,1,4,2,2
Canaveral Harbor_U.S.A.,port212,28.41097835086082,-80.61594934700865,USA,NOAM,0.00018725097488663683,93,0.00041904608630860237,0.0004127106341742272,0.0005362370306193207,1,4,2,2
Cang Doosan Vina_Vietnam,port213,15.404665009910977,108.8018653241234,VNM,ASIA,0.00016402459222503385,119,0.0008362059834145812,0.0008608960351384446,0.0006569908675277198,3,0,1,0
Cap Haitien_Haiti,port214,19.75954417666434,-72.19569506975097,HTI,NOAM,1.2125196429083787e-05,43,0.00020028918878085098,7.357692219684808e-05,0.00019599908929970736,1,4,2,2
Cape Town_South Africa,port215,-33.915431968933554,18.44822890206952,ZAF,AFRI,0.0014331187935726025,119,0.0012035688791692048,0.0013921493595069811,0.0011757668705722393,3,1,3,0
Caracasbaai_Curacao,port216,12.072587852928702,-68.86187968090893,CUW,NOAM,2.484794401019534e-07,7,2.9111486024387873e-05,2.2078601805004845e-05,0.0001343284764310368,1,4,2,2
Cardiff_United Kingdom,port217,51.46428974717733,-3.1541298941121587,GBR,EURO,8.549802154635177e-05,104,0.000538225871455452,0.00048615275321436875,0.000453680974849085,4,3,5,4
Cartagena_Colombia,port218,10.335006021988931,-75.51291157787148,COL,SOAM,0.006457570704386403,119,0.0013314955923055813,0.0015282230858904876,0.0019363612894834686,1,4,2,2
Cartagena_Spain,port219,37.57548974049472,-0.945398356705371,ESP,EURO,0.003345309846953969,119,0.001988497852178846,0.001895619310006814,0.0017563777486270232,0,1,4,1
Casablanca_Morocco,port220,33.60660010425234,-7.578850395884303,MAR,AFRI,0.0034886321934290867,119,0.001976229410367124,0.0019602812178478876,0.0018307641243525612,0,1,4,1
Castries_Saint Lucia,port221,13.994441106501782,-61.009273722589015,LCA,NOAM,0.000708267807085289,77,0.000369872772514694,0.00033775578342350746,0.0007003033701993571,1,4,2,2
Catania_Italy,port222,37.49462808445681,15.092482394346511,ITA,EURO,1.605508640698218e-05,81,0.0002905683829780908,0.00031496774513613664,0.00038805173480679857,0,1,4,1
Cayo Moa Grande_Cuba,port223,20.65247127669832,-74.90892688634872,CUB,NOAM,5.566015948861725e-06,31,0.00015148299812319047,9.749769184366731e-05,0.0002136156073660858,1,4,2,2
Cebu_Philippines,port224,10.31413031775281,123.93695341707496,PHL,ASIA,0.0006128665354968872,116,0.000821208257006503,0.0006907429190409181,0.0006587059220471106,3,0,1,0
Chaguaramas_Trinidad and Tobago,port225,10.68085280779315,-61.640375752443504,TTO,NOAM,0.00029846117734382417,63,0.0002242606863175523,0.0002404176366200637,0.00045638954681797433,1,4,2,2
Chan Bahar_Iran,port226,25.29603979836333,60.6110798324922,IRN,ASIA,2.1790325433731415e-05,30,0.00018947768787945258,0.0001726253292736617,0.00021170722137390098,3,0,3,0
Changshu_China,port227,31.757780409043075,120.96427286621352,CHN,ASIA,0.0006215431866021934,119,0.0013017925478114815,0.0013300123463615698,0.0009882250803964813,3,0,1,0
Changzhou_China,port228,31.97423130057432,119.9982753898753,CHN,ASIA,0.0004230257770118855,119,0.0016069319365761509,0.001497879294937097,0.0010544586045632773,3,0,1,0
Chaozhou_China,port229,23.56807273460945,117.1093331542703,CHN,ASIA,0.00011819679677084768,119,0.000943718487135146,0.0008312711930281356,0.0006429100783838499,3,0,1,0
Charco Azul_Panama,port230,8.20636789441012,-82.87824453035748,PAN,NOAM,2.6882176978796426e-05,50,0.0002700892462175458,0.0002001070600972747,0.0003037618987778703,1,4,2,2
Charleston_U.S.A.,port231,32.89929619779481,-79.92115798771714,USA,NOAM,0.0009437962806083939,119,0.0010326585839254626,0.001064376130257467,0.0009955985999259781,1,4,2,2
Charlestown_Saint Kitts and Nevis,port232,17.109794906375107,-62.62298190436625,KNA,NOAM,6.439083210984832e-06,20,2.5216541328900275e-05,1.405776424829728e-05,0.00023190000770709587,1,4,2,2
Charlotte Amalie_U.S. Virgin Islands,port233,18.33384952631222,-64.93840481312252,VIR,NOAM,0.00023822305480180887,46,0.00017714561697652992,0.00011419246023459621,0.0004096003671200443,1,4,2,2
Chatnam Docks_United Kingdom,port234,51.40095730327677,0.5469494856885868,GBR,EURO,9.73510835171498e-06,69,0.00035367966791431525,0.00027803757700866483,0.0003033989732922626,4,3,5,4
Chennai (Madras)_India,port235,13.10046724124775,80.2942507382557,IND,ASIA,0.001635505361547272,119,0.0016006509821332444,0.0017098007692284366,0.001299669290443345,3,0,3,0
Cherry Point_Canada,port236,48.85252004956763,-122.7139354060087,CAN,NOAM,9.084112876428533e-05,75,0.00038764935981522997,0.0004202362505447701,0.00044485079130356797,1,4,2,2
Chester_U.S.A.,port237,39.852882198627775,-75.34091923593303,USA,NOAM,2.1322316041946075e-06,24,0.00012130568000857406,8.766434215853311e-05,0.00020966831979796425,1,4,2,2
Chi-Lung_Taiwan,port238,25.147179939068234,121.75200586683812,TWN,ASIA,0.0006846465027302608,119,0.001183917716369421,0.001239301103647914,0.0010087308196897965,3,0,1,0
Chiba Ko_Japan,port239,35.52513991618921,140.05233918787292,JPN,ASIA,0.0026597116749249093,119,0.0020103553006874126,0.002086578123805917,0.001829239326996428,3,0,1,0
Chiriqui Grande_Panama,port240,8.954239787395805,-82.12102128651314,PAN,NOAM,2.2320551406153576e-05,51,0.0002586098839184869,0.00020103680934834039,0.00027764609268174465,1,4,2,2
Chittagong_Bangladesh,port241,22.28124579916894,91.81385426635528,BGD,ASIA,0.0013863537098540311,119,0.0014821836759168591,0.0015623758015363676,0.0011935363790745465,3,0,1,0
Chiwan_China,port242,19.96273733653865,110.03398968585932,CHN,ASIA,0.00011942299623956083,118,0.0009178369291862756,0.0008837493039895112,0.0006604101859195489,3,0,1,0
Christiansted_U.S. Virgin Islands,port243,17.746933391466982,-64.69837050358727,VIR,NOAM,0.0,6,2.051605261299146e-05,1.7146365650308996e-05,0.00014126200628336528,1,4,2,2
Cienfuegos_Cuba,port244,22.17631285446604,-80.49961070099657,CUB,NOAM,0.0001870474590609626,80,0.0003787785520498637,0.00033267277294113027,0.00047909336369800833,1,4,2,2
Cilacap_Indonesia,port245,-7.710107441187323,109.03883428026492,IDN,ASIA,0.0005499487995428377,108,0.0006150738778701341,0.0007101312225448978,0.0007484403438484269,3,0,1,0
Cirebon_Indonesia,port246,-6.735909509539823,108.59151043281098,IDN,ASIA,2.5698393033608596e-05,34,0.00014394318946201772,0.00012232327827260895,0.0002698874201453757,3,0,1,0
Civitavecchia_Italy,port247,42.10236805900522,11.779231676930848,ITA,EURO,0.0002722415943798123,115,0.0007958111117638717,0.0007437309823729301,0.0007348644290024964,0,1,4,1
Clarkson_Canada,port248,43.49767819944188,-79.61775485378543,CAN,NOAM,0.000177996326278236,26,9.961755070322462e-05,0.0001219851768208522,0.0003422430849237667,1,4,2,2
Cleveland_U.S.A.,port249,41.47381880691707,-81.67511755617093,USA,NOAM,0.00025537061726048544,28,8.138590900945792e-05,0.00010821635358396363,0.0004866756675304901,1,4,2,2
Clifton Pier_Bahamas,port251,25.005151913156016,-77.54462512670035,BHS,NOAM,0.00012705938329884064,21,9.143783681502791e-05,8.118246584621212e-05,0.00030045189501251075,1,4,2,2
Coatzacoalcos_Mexico,port252,18.120759614994963,-94.40048652600215,MEX,NOAM,0.0005137750150095209,110,0.0006181841535836148,0.0006933619942034253,0.0008263983192316765,1,4,2,2
Coles Bay Oil Terminal_Sint Maarten,port253,18.0242496821265,-63.080616274031776,SXM,NOAM,7.601160781809799e-06,25,4.3685145411355285e-05,5.068598847143875e-05,0.0002744689444942195,1,4,2,2
Colombo_Sri Lanka,port254,6.949982172757183,79.83978690091833,LKA,ASIA,0.0006610447161819145,119,0.00144650035052241,0.0012510385200239478,0.0009586469427873542,3,0,3,0
Colonia_Micronesia,port255,9.515369658800893,138.125052007341,FSM,AUST,8.535296755167014e-05,11,3.626205399443317e-05,3.444892425576657e-05,0.00019457548341342948,3,0,1,0
Come By Chance Harbor_Canada,port256,47.78874082562783,-54.00048293234882,CAN,NOAM,0.00027028050528425673,86,0.0005156992683346831,0.000404739070257584,0.0005290301976224308,1,4,2,2
Comodoro Rivadavia_Argentina,port257,-45.8339314864208,-67.44977008063881,ARG,SOAM,2.0062668107293876e-05,48,0.0002639329389097526,0.0002265949964987526,0.0002721325144843478,1,4,2,2
Conakry_Guinea,port258,9.51414335959939,-13.715240949211362,GIN,AFRI,0.0005807947706412764,119,0.0010384971833394424,0.0009012329855909641,0.0007624184436394038,0,1,4,1
Conchan Oil Terminal_Peru,port259,-12.248992400455338,-76.926783415688,PER,SOAM,4.324510901319905e-05,68,0.00020864841330247915,0.0003623834919198176,0.0004344924215799454,1,4,2,2
Constanta_Romania,port260,44.13174252572028,28.648438622240928,ROU,EURO,0.005246000094547518,119,0.0021864441435832885,0.0020214601185015594,0.001981537315394571,0,1,4,1
Corinto_Nicaragua,port261,12.481009330396384,-87.16901026624205,NIC,NOAM,0.00018229915824894422,89,0.00048175512406994914,0.00035454741878920306,0.0004187084508516248,1,4,2,2
Cork_Ireland,port262,51.87249836526492,-8.360436822326843,IRL,EURO,0.000972941862386849,117,0.0010501962117843713,0.001245740721430647,0.0012532965288688423,4,3,5,4
Coronei_Chile,port263,-37.025469173310185,-73.16219887909149,CHL,SOAM,0.00021628790665956832,95,0.0005083716255385632,0.0004757029843655259,0.0005527727142039219,1,4,2,2
Corpus Christi_U.S.A.,port264,27.84122725064461,-97.3799079100681,USA,NOAM,0.0037870064715348505,119,0.0019892806975873936,0.0019388265623665,0.0019235573264327858,1,4,2,2
Cotonou_Benin,port265,6.345724287103881,2.4229238723398545,BEN,AFRI,0.000888769038914977,119,0.0009728766729669333,0.0010679606251501965,0.000888185348658942,0,1,4,1
Covenas Offshore Term._Colombia,port266,9.404219878394926,-75.69862757158533,COL,SOAM,9.605889203603543e-05,79,0.00035662549312709147,0.0005302654873642379,0.0005727608048804695,1,4,2,2
Cueta_Spain,port267,35.89549311484472,-5.316014757585397,ESP,EURO,0.0036492008567459034,119,0.0018604529899451244,0.0017681395596735585,0.001864270863499004,0,1,4,1
Cuxhaven_Germany,port268,53.85279364100689,8.721034287904514,DEU,EURO,0.0002125955923312756,105,0.0006055700248042715,0.0006723931660185122,0.0007387436620743051,4,3,5,4
Da Nang_Vietnam,port269,16.115138007234656,108.22964665667344,VNM,ASIA,6.210371064817237e-05,106,0.0007218323623033901,0.0007178782427459312,0.0005482282502531622,3,0,1,0
Daesan Hang_South Korea,port270,37.01322693846365,126.40367278117384,KOR,ASIA,0.0011013897903500807,119,0.001536495391692286,0.0016010590239779045,0.0012270993045489268,3,0,1,0
Dahej_India,port271,21.70299816986304,72.57511465737426,IND,ASIA,0.0004179742999948451,119,0.0011116955478461096,0.0013107388271469571,0.0009527343797777811,3,0,3,0
Dakar_Senegal,port272,14.68346039725946,-17.426101932742775,SEN,AFRI,0.0024285809630376974,119,0.001720968434979841,0.001509997960302515,0.0012877866256538392,0,1,4,1
Dalian_China,port273,38.9870355045646,121.77030099721196,CHN,ASIA,0.003578257302816406,119,0.0022975827325221513,0.0022634626554005827,0.0018786902908081555,3,0,1,0
Damietta_Egypt,port274,31.462136855631023,31.759472476409314,EGY,AFRI,0.002675571907757842,119,0.0016409660170089897,0.0016930819175849804,0.0014420385913104941,0,1,4,1
Damman_Saudi Arabia,port275,26.47626701122541,50.194397147158526,SAU,ASIA,0.0006461265158057019,119,0.0013128409761496728,0.0012563987066841126,0.0008855267047117849,3,0,3,0
Dampier_Australia,port276,-20.626686598862754,116.7424761471211,AUS,AUST,0.0006720197862411813,119,0.0012738937743709982,0.0014768399977614609,0.0011589555269307691,3,0,1,0
Dandong_China,port277,39.81024913763587,124.1468591082476,CHN,ASIA,0.0003374012205650675,119,0.0012252073696021606,0.001196741476003114,0.0008467955981397787,3,0,1,0
Dar Es Salaam_Tanzania,port278,-6.843548594602096,39.29619623538085,TZA,AFRI,0.0004904958030001623,119,0.0009743889927761032,0.0009463544585233943,0.0007180255498362612,3,0,3,0
Daru_Papua New Guinea,port279,-9.065995282488482,143.20949523251002,PNG,AUST,3.585571959542008e-06,13,4.933147846355909e-05,6.821817861045004e-05,0.00017517926696023758,3,0,1,0
Darwin_Australia,port280,-12.497946677904425,130.9019044128822,AUS,AUST,0.00034847861672811497,118,0.0008758230505017488,0.0010024406557704445,0.0008910818324838989,3,0,1,0
Davao_Philippines,port281,7.178981080270961,125.65946637381832,PHL,ASIA,0.0010444528154950102,119,0.001289360997466312,0.0011364403393420656,0.0009138613043938254,3,0,1,0
Davisville Depot_U.S.A.,port282,41.60836202310179,-71.41914669084434,USA,NOAM,1.1818492976547194e-05,41,0.0002489972549793703,0.00014684119418729652,0.00024572594239384045,1,4,2,2
De Kastri_Russia,port283,51.468894833417565,140.77824110109884,RUS,EURO,2.5747062613728083e-06,20,0.00010149222252156405,0.00013410004324552387,0.00019020051916654118,3,0,1,0
Degrad Des Cannes_French Guiana,port284,4.8571076673490285,-52.275230143183016,GUF,SOAM,6.36344052571101e-05,51,0.00018445199328345928,0.00011871758154708716,0.0003339882669565954,1,4,2,2
Delfzijl_Netherlands,port285,53.31497834636717,6.964153498468105,NLD,EURO,0.0004705807079771317,111,0.0008849988050207324,0.0008621057162665097,0.0009136627242970716,4,3,5,4
Delta Terminal_Turkey,port286,36.86084344273486,36.150487686911326,TUR,ASIA,2.0477015545804177e-05,66,0.00033098532472414184,0.0003740008791221501,0.00034798387393468325,0,1,4,1
Derince Burnu_Turkey,port287,40.75824677394928,29.779919162858928,TUR,ASIA,0.003237054813355265,119,0.0018972145763968328,0.0020395163853056493,0.0018222656279451906,0,1,4,1
Devonport_Australia,port288,-41.18265809516222,146.36590767642315,AUS,AUST,8.89366778949659e-06,38,0.00017830833758450165,5.64087448934975e-05,0.00021400320554326407,3,0,1,0
Dhaka_Bangladesh,port289,23.662417601691185,90.44870638779769,BGD,ASIA,0.0,6,4.0234827737348595e-05,1.8747388439297436e-05,0.00012360808611758758,3,0,3,0
Dhamara Port_India,port290,20.827736983769817,86.95950149569153,IND,ASIA,0.00013548203626681445,119,0.0008653627612708534,0.000841876662846416,0.0006062344509876325,3,0,3,0
Dhekelia_Cyprus,port291,34.72313086128211,33.31349018704524,CYP,ASIA,0.0001802961021680049,108,0.0006559473383804714,0.0006619778119033502,0.0006762848429671494,0,1,4,1
Dili_Timor-Leste,port292,-8.548699466922251,125.56153699418424,TLS,ASIA,6.404175772490331e-05,39,0.00019459688438412329,0.0001620078186185676,0.00028390755394734466,3,0,1,0
Djen-Djen_Algeria,port293,36.82059244730151,5.886895265191487,DZA,AFRI,0.00028316663287893714,119,0.0009018103540894899,0.0009941677727134202,0.0007595876748259043,0,1,4,1
Djibouti_Djibouti,port294,11.59746443353415,43.10371866277629,DJI,AFRI,0.0009595206728690638,119,0.0014425776642604659,0.0013503578092074991,0.0010732472480543993,3,1,3,0
Djupivogur_Iceland,port295,64.66058562142437,-14.28688964542949,ISL,EURO,2.2702043594439123e-06,14,1.4883079669868458e-05,2.942331387963462e-05,0.0001559741194403574,4,3,5,4
Djupviken_Norway,port296,63.752865221539935,11.305065427305346,NOR,EURO,0.00010571257250579617,101,0.0004856800369999995,0.0005215372254285538,0.0006959029936786924,4,3,5,4
Donggala_Indonesia,port297,-0.7450206636203336,119.82889509130888,IDN,ASIA,1.9676201748998054e-05,30,0.00011717989902052493,0.00013468355820374793,0.00028989912922488555,3,0,1,0
Dos Bocas Terminal_Mexico,port298,18.43219459731968,-93.18303295874652,MEX,NOAM,2.6587223176182367e-05,44,0.00021276264082849812,0.00016985368100420713,0.00030648300958488283,1,4,2,2
Douala_Cameroon,port299,4.052880864615648,9.683368801434446,CMR,AFRI,0.000987029379529673,119,0.0010104365011969938,0.0009250888909390368,0.0008253307219496706,0,1,4,1
Dover Harbor_United Kingdom,port301,51.12045225982155,1.3243048041574812,GBR,EURO,5.333009493998192e-05,70,0.00026877058943012005,0.00031992352430413755,0.0004155247139611072,4,3,5,4
Dover_Australia,port300,-43.34182942953283,147.02644297779446,AUS,AUST,0.0,1,1.578869891206007e-06,1.0727147828997232e-06,0.00011833131998285231,3,0,1,0
Drammen_Norway,port302,59.73742491585902,10.239601801511414,NOR,EURO,0.00012666404446973605,102,0.0005382821812308287,0.0005457700651669855,0.0006670929849690994,4,3,5,4
Drogheda_Ireland,port303,53.71699841913632,-6.339268260612721,IRL,EURO,2.6793862403417358e-05,96,0.00041192441891510555,0.0004212404263500268,0.0004308556878693821,4,3,5,4
Duba Bulk Plant Tanker Terminal_Saudi Arabia,port305,27.327605272323176,35.734910230982294,SAU,ASIA,0.0,7,5.073850545741764e-05,2.443377638625722e-05,0.00012127156066177544,3,1,3,0
Duba_Saudi Arabia,port304,27.55991231230089,35.5465966980552,SAU,ASIA,1.198573295853405e-05,39,0.00017084160771831296,0.00020073238722887046,0.00023317912167639566,3,1,3,0
Dubayy_United Arab Emirates,port306,25.273373623758204,55.29082099846359,ARE,ASIA,0.0008398226002527601,119,0.0008532700793567401,0.0010075247437322744,0.0009044463308868433,3,0,3,0
Dublin_Ireland,port307,53.34632537805415,-6.2049355930749925,IRL,EURO,0.0005879405741338094,115,0.0008852675157073093,0.0009705230221480292,0.0009557537437353762,4,3,5,4
Dudinka_Russia,port308,69.4031210247586,86.17703837353535,RUS,EURO,4.780759914737629e-06,17,0.0001065167972561981,8.520643365224805e-05,0.00016785442329874523,4,3,5,4
Dumai_Indonesia,port309,1.7173885039406775,101.41882354750304,IDN,ASIA,0.0020455269122690105,119,0.0016373563078931309,0.0012361118529936235,0.0010066511035140692,3,0,1,0
Dunkerque Port Ouest_France,port310,51.02068300332831,2.2667766493888406,FRA,EURO,0.0037628317613180766,119,0.0019759496220922985,0.0018786277274663405,0.001851832174057749,4,3,5,4
Durban_South Africa,port311,-29.88212961436449,31.02302243419417,ZAF,AFRI,0.004768990733580254,119,0.0022114195215687865,0.0025214126519771396,0.002080130977595855,3,0,3,0
Durres_Albania,port312,41.34064126097365,19.44399989841224,ALB,EURO,0.00015128224414268044,96,0.0005666969921977593,0.0004884314605171868,0.0006181312704983976,0,1,4,1
Dzaoudzi_Mayotte,port313,-12.76692626923014,45.280104383983,MYT,AFRI,0.0,3,9.528624046188908e-06,2.5591210709590613e-06,0.00012365328026850162,3,0,3,0
EL Segundo_U.S.A.,port314,33.914907439319514,-118.40197968164686,USA,NOAM,7.407468560593046e-05,58,0.0002650380635599788,0.00028663945147403057,0.00034764582746092627,1,4,2,2
East London_South Africa,port315,-33.02810635632081,27.900881035206123,ZAF,AFRI,3.2298155548837826e-06,39,0.0002681698346459928,0.00016995238572517393,0.00021062127252432939,3,1,3,0
Eemshaven_Netherlands,port316,53.44141225495741,6.841979620902956,NLD,EURO,0.000863316622468089,115,0.001070538047246035,0.001083464395340403,0.0011124076558609156,4,3,5,4
El Grao_Spain,port317,39.9592363855611,0.0089323476390812,ESP,EURO,0.0005373967947167131,119,0.0010507792909449133,0.0011223459078406734,0.0009693506478347544,0,1,4,1
El Guamache_Venezuela,port318,10.877324091130324,-64.02942038829006,VEN,SOAM,4.252595646323825e-06,15,3.654714644434335e-05,1.6031514752307666e-05,0.00015931925241337777,1,4,2,2
El Jorf Lasfar_Morocco,port319,33.11351890616566,-8.609401597566807,MAR,AFRI,0.0021999657007487584,119,0.0020137584736999643,0.0018074704840509905,0.001557953464029274,0,1,4,1
El Palito_Venezuela,port320,10.483395770568489,-68.13572967966111,VEN,SOAM,0.00010947548580732063,62,0.00031329309212991846,0.00027426623812945925,0.0003852846366877958,1,4,2,2
El-Adabiya_Egypt,port321,29.904162912450463,32.46211563003946,EGY,AFRI,0.0007269037183844053,119,0.0011957628063011493,0.0010762664632468508,0.0008270980096541103,3,1,3,0
Elevsis_Greece,port322,38.04219308474212,23.533407743179595,GRC,EURO,0.0008966813662946525,119,0.001072560473006828,0.0011834243032027565,0.0011567978921048945,0,1,4,1
Emden_Germany,port323,53.345804517554434,7.183700069745903,DEU,EURO,0.001650076895443088,117,0.0011997349601305595,0.0010149493702941608,0.0011002934197402035,4,3,5,4
Empire_U.S.A.,port324,43.42715709377092,-124.25923013645156,USA,NOAM,8.820041702491344e-06,35,0.00013330585247063034,0.00018567893574976865,0.00025072538639956006,3,0,1,0
Ende_Indonesia,port325,-8.850508970626965,121.65387490488357,IDN,ASIA,1.0347901466661648e-05,17,5.9687962675954584e-05,4.85406484243576e-05,0.00020294222695417337,3,0,1,0
Ensenada_Mexico,port326,31.849564665244007,-116.62459926143812,MEX,NOAM,8.875127890814525e-05,71,0.00036456259566495364,0.0003588561815018723,0.0003644509740916807,3,4,2,0
Eregli_Turkey,port327,41.26435668553631,31.416809072576925,TUR,ASIA,0.0004279069532201388,119,0.0008489866218879384,0.0009060444018183216,0.0008313042609752604,0,1,4,1
Esbjerg_Denmark,port328,55.46312208377105,8.46705790148358,DNK,EURO,0.0013672762614695352,117,0.0011229182668698447,0.001105596185244361,0.0011863522273804013,4,3,5,4
Eskifjordhur_Iceland,port329,65.04291822343558,-14.086756475206547,ISL,EURO,8.887210182719448e-05,70,0.0003088507815079802,0.00026278027288335404,0.0003722583512992476,4,3,5,4
Esmeraldas_Ecuador,port330,0.9904562019326204,-79.65069729235927,ECU,SOAM,3.707793251909155e-05,54,0.00021045722236129322,0.00018333937849087653,0.0002788007588430522,1,4,2,2
Esperance_Australia,port331,-33.87217365996532,121.90073734497211,AUS,AUST,0.00037037829177504204,118,0.0008127767011847028,0.0009015436834732129,0.0007276609403569084,3,0,1,0
Europa Point_Gibraltar,port332,36.13663071653813,-5.359921566583063,GIB,EURO,0.0010039204224128336,119,0.001291057680533773,0.001176562965240143,0.0011288717511108058,0,1,4,1
Everett_U.S.A.,port333,47.97713082997939,-122.22369174647808,USA,NOAM,1.8889578088994356e-05,50,0.00018907685739404768,0.0002621458655062663,0.00026613291693431925,3,0,1,0
Ez Zueitina_Libya,port334,30.895427371186532,20.08311578731142,LBY,AFRI,6.828846356005384e-08,11,4.501423810302884e-05,5.4467343134533305e-05,0.00015448705122509415,0,1,4,1
Falkenberg_Sweden,port335,56.89932292586699,12.467028989156889,SWE,EURO,8.534920309573576e-05,104,0.0005477183793832291,0.0005759161789128515,0.0007235210543165341,4,3,5,4
Falmouth Harbour_United Kingdom,port337,50.15300320784775,-5.054148128251897,GBR,EURO,1.1936062018747465e-05,62,0.00034317277603019246,0.0003039431282384766,0.00033049621947073613,4,3,5,4
Falmouth_Jamaica,port336,18.49344099968754,-77.64899658930335,JAM,NOAM,0.0,2,6.545297325881516e-07,5.268786486200239e-06,0.00011225022778048103,1,4,2,2
Famagusta_Turkey,port338,35.232421132761615,33.96802251572996,TUR,ASIA,0.00014695338325755518,58,0.0002920427257061111,0.0002600726097278827,0.000309598042066502,0,1,4,1
Fang-Cheng_China,port339,21.614205337319703,108.36433932071556,CHN,ASIA,0.004001746639193413,119,0.002324366931416489,0.002274041287877797,0.0018902403438378144,3,0,1,0
Faradofay_Madagascar,port340,-25.066809909305544,46.96379773414274,MDG,AFRI,5.251130617661433e-05,37,0.00014547917797483624,0.0001851162880823281,0.0002779758708354063,3,0,3,0
Fare_French Polynesia,port341,-16.71469643911556,-151.03433340742689,PYF,AUST,0.0,4,1.0655302817826733e-06,1.3957499888286156e-06,0.0003422778158931489,2,2,0,3
Fawley Marine Terminal_United Kingdom,port342,50.839812283650495,-1.3552449111525404,GBR,EURO,0.0005528395205460242,119,0.0010355411184735162,0.0012478214169243415,0.0011391616749136134,4,3,5,4
Felixstow_United Kingdom,port343,51.95411086516388,1.2931483700092363,GBR,EURO,0.00020647586018926074,109,0.0006937809283247163,0.0007995579448123808,0.0007162804033548053,4,3,5,4
Ferrol_Spain,port344,43.47534572248764,-8.235886284332576,ESP,EURO,0.0008497263456476792,119,0.001182104377770826,0.001116630659162557,0.0009875510182765466,4,3,5,4
Figueira Da Foz_Portugal,port345,40.14727686105776,-8.846579476120617,PRT,EURO,0.00012158441492458572,112,0.0007597765066587123,0.0006685839422796695,0.0006183549628245677,4,3,5,4
Finnart Oil Terminal_United Kingdom,port346,56.11383240283289,-4.833893636339257,GBR,EURO,5.8078266060491904e-06,32,0.0001733360276649343,0.00016159245624771727,0.0002224044902205872,4,3,5,4
Finnsnes_Norway,port347,69.2217864868465,18.08090403709313,NOR,EURO,1.852146260236139e-05,71,0.00033821566521029657,0.00022429424859478613,0.0003356057115029344,4,3,5,4
Flekkefjorden_Norway,port348,58.276332554109565,6.889601003476673,NOR,EURO,0.00021049805674815895,101,0.0004709125112932836,0.0005445020016411966,0.0007126526209664051,4,3,5,4
Floro_Norway,port349,61.60373535507638,5.057204180180993,NOR,EURO,0.00023546577346637368,104,0.0006233365930626371,0.000625715300464467,0.0007615524373227023,4,3,5,4
Fort De France_Martinique,port350,14.601754287031373,-61.046956230224346,MTQ,NOAM,0.0004116433999482885,85,0.0003647623590045031,0.0003636196404553879,0.0006027034729571052,1,4,2,2
Fos_France,port351,43.437564896174734,4.887000028740862,FRA,EURO,0.0016988874384166921,119,0.0015806642349271648,0.0015425639122895152,0.0013510353609566131,0,1,4,1
Founchon_U.S.A.,port352,29.1303434277988,-90.20534334248904,USA,NOAM,0.002855883167658653,34,0.0001137379164823369,0.00012586405745053527,0.00046067046540534707,1,4,2,2
Foynes_Ireland,port353,52.618272158975664,-9.073834332059272,IRL,EURO,0.00026061271752694814,113,0.000683834156260575,0.0008587797100123911,0.0007274814968653662,4,3,5,4
Fredericia_Denmark,port354,55.55789495739138,9.7469439762095,DNK,EURO,0.0002871307834107542,109,0.0008340376138637173,0.000885195399110088,0.0009261629526635181,4,3,5,4
Frederikshavn_Denmark,port355,57.43847820033015,10.545880590458468,DNK,EURO,0.0001349520863714349,103,0.0004897834300295138,0.0005607922187270342,0.0006688641674711044,4,3,5,4
Fredrikstad_Norway,port356,59.186364157675655,10.957433291156958,NOR,EURO,0.00044494231513472814,108,0.0007612765183050169,0.0008753196675043625,0.0010830024027765428,4,3,5,4
Freeport_Bahamas,port357,26.524515214800303,-78.7626658095323,BHS,NOAM,0.002295458256299296,111,0.0007646608621380711,0.000605384189438537,0.0009247686701367922,1,4,2,2
Freeport_U.S.A.,port358,28.943937379395933,-95.32605000312248,USA,NOAM,0.0014340290701776327,119,0.0014116492695837365,0.0013894007638336474,0.001280081038593013,1,4,2,2
Freeriksvaerk_Denmark,port359,55.96279547703541,12.01281697504398,DNK,EURO,6.214938871023603e-05,102,0.0005697737580478446,0.00045766560690750234,0.0005696818454411567,4,3,5,4
Freetown_Sierra Leone,port360,8.486640908133134,-13.201867189722815,SLE,AFRI,0.00010795161806749765,102,0.0005219985109570248,0.0006074681657615025,0.0005376410677225065,0,1,4,1
Fremantle_Australia,port361,-32.152032519524546,115.77052416812684,AUS,AUST,0.002862877881255295,119,0.0017068409314913073,0.0019635885678915693,0.0016266877258929336,3,0,1,0
Fujayrah Harbor_United Arab Emirates,port362,25.20017277781963,56.35942059300059,ARE,ASIA,0.0021481907124560476,119,0.0016990476171327216,0.0018070926860983532,0.001514753836406542,3,0,3,0
Fukui Ko_Japan,port363,36.18520936680672,136.11513900904595,JPN,ASIA,1.1466083390458474e-05,92,0.0005242856828802499,0.0005065073955016462,0.0004697417211342468,3,0,1,0
Fukuyama_Japan,port364,34.462878531729864,133.4385466724517,JPN,ASIA,0.0009165716829145697,119,0.001761452804595165,0.0014361362356642361,0.0011408173767308422,3,0,1,0
Funabashi_Japan,port365,35.67485206478612,139.9681077054694,JPN,ASIA,0.00016426497355170517,119,0.0010736517977618938,0.0010623996805079587,0.0008744354546402774,3,0,1,0
Funafuti Atoll_Tuvalu,port366,-8.502722898706667,179.1953024496817,TUV,AUST,7.437580278082293e-05,18,4.62865701862607e-05,6.618707291331495e-05,0.00030698825851723026,3,0,1,0
Funchal_Portugal,port367,32.74157141504273,-16.732209744042162,PRT,EURO,6.572720171918786e-06,35,0.00021501965563988317,0.00011582919097677745,0.0001968439316454673,0,1,4,1
Furku_Finland,port368,60.44475295311863,22.18746958900006,FIN,EURO,5.041892430599426e-05,100,0.0004218565343091311,0.00044357282736361885,0.0005221342379792349,4,3,5,4
Fushiki-Toyama_Japan,port369,36.76864401123984,137.14237319673575,JPN,ASIA,0.00021666889020274113,119,0.000998247516371859,0.0009879032392370681,0.0008071894169907644,3,0,1,0
Fuzhou_China,port370,25.777604912592345,119.47432414767236,CHN,ASIA,0.00044218417086489155,119,0.001419773027933934,0.001376246472068361,0.0009829899189447008,3,0,1,0
Gabes_Tunisia,port371,33.91881608676359,10.08893966692584,TUN,AFRI,0.0002600699402034218,118,0.000799274922330099,0.0008481260455867468,0.0008131740548788772,0,1,4,1
Galeota Point Terminal_Trinidad and Tobago,port372,10.138083712482498,-61.0020970716123,TTO,NOAM,0.0,4,5.740435209101085e-06,7.4617646075416e-06,0.00012007594541913686,1,4,2,2
Galveston_U.S.A.,port373,29.30976119320005,-94.80456984576392,USA,NOAM,0.0017970798214300612,119,0.000968844797708007,0.0015525053801453627,0.001457385700323793,1,4,2,2
Galway_Ireland,port374,53.26969446061829,-9.044159060321112,IRL,EURO,2.007524325692239e-06,44,0.00017199760647926355,0.00014844450401261326,0.00022717738052302434,4,3,5,4
Gaogang_China,port375,32.313467336662946,119.81110088470822,CHN,ASIA,0.0005299146984565336,119,0.001181572988707211,0.0010405516391640563,0.0008428467315568936,3,0,1,0
Garlston_United Kingdom,port376,53.29145841460292,-2.8930672139858937,GBR,EURO,0.00048251002785606144,112,0.0009590394099120584,0.0009121568055451398,0.0009275706288451197,4,3,5,4
Gary_U.S.A.,port377,41.61965319164468,-87.3395544643907,USA,NOAM,1.1986909934257561e-06,18,8.731971368937089e-06,1.100468728467311e-05,0.00029833435411748575,1,4,2,2
Gavan Vysotsk_Russia,port378,60.603922231518375,28.56339825283301,RUS,EURO,0.0005120813415775949,112,0.0008273453252829696,0.0007957844449480171,0.0007880624963121016,4,3,5,4
Gavle_Sweden,port379,60.68762642747101,17.2458152581625,SWE,EURO,0.00024383110297256314,106,0.0006471422125834253,0.0007668294709268989,0.0008174376378245205,4,3,5,4
Gdansk_Poland,port380,54.37579704132241,18.69364422721409,POL,EURO,0.004680577890789159,119,0.0016076748068083336,0.0019167229148348412,0.00203122627101733,4,3,5,4
Gdynia_Poland,port381,54.53556217887057,18.524510975094508,POL,EURO,0.0017977732185787047,119,0.001503727155391226,0.0015300057045093925,0.0015579305268601847,4,3,5,4
Gebig_Brazil,port382,-23.057009661898604,-44.23521541519647,BRA,SOAM,5.55727253157927e-05,72,0.0004417482304739019,0.0004899432342313838,0.0004365509145724291,1,4,2,2
Geelong_Australia,port383,-38.095292647827776,144.36537251126336,AUS,AUST,0.0006475462384224778,119,0.0008490427952476847,0.0008945371817072734,0.0008092397145145521,3,0,1,0
Gela_Italy,port384,37.05185810728561,14.280984047033945,ITA,EURO,4.215850760873924e-05,67,0.0003222835539939163,0.0003880356430779525,0.00036480568646315157,0,1,4,1
Gemlik_Turkey,port385,40.41272034564045,29.103480035024777,TUR,ASIA,0.0009864139816709425,119,0.001303819841197877,0.0013555597297475058,0.0012229469149331966,0,1,4,1
General Santos_Philippines,port386,6.060167101255927,125.1478438643604,PHL,ASIA,0.00032219597154507703,75,0.00047409028886127164,0.00042922555139954607,0.0004741540617912672,3,0,1,0
Genova_Italy,port387,44.41310049391406,8.858680067801865,ITA,EURO,0.0018948424895445636,119,0.0016998585529689255,0.001803212734283593,0.001599388740471663,0,1,4,1
Georgetown_Bahamas,port388,23.506737649556783,-75.76789416525226,BHS,NOAM,1.6767580931069338e-06,8,8.266782253351679e-06,1.0212739924206497e-05,0.00021248072697015532,1,4,2,2
Georgetown_Cayman Islands,port389,19.29629305832162,-81.38380906416288,CYM,NOAM,1.0498360682689809e-05,21,4.471145498312145e-05,3.0826600113725036e-05,0.00018910844714414927,1,4,2,2
Georgetown_Guyana,port390,6.7983690385449975,-58.169551897968255,GUY,SOAM,0.0012746168249288404,100,0.0005933508707822012,0.0004279498508139539,0.0007865026997044524,1,4,2,2
Geraldton_Australia,port391,-28.776094489539258,114.59419328868512,AUS,AUST,0.00029567186117510476,119,0.0009449118465866029,0.0012724706810950488,0.0009450294841620834,3,0,1,0
Ghazaquet_Algeria,port392,35.1021976995162,-1.8625375909539548,DZA,AFRI,1.3435125226708237e-05,85,0.00043883006566652693,0.00033899871506898056,0.0003249747120817236,0,1,4,1
Ghent_Belgium,port393,51.13028980402819,3.766941707027173,BEL,EURO,0.004931701915101548,119,0.0019479212792070594,0.0021417294545970807,0.0021983256559431766,4,3,5,4
Gijon_Spain,port394,43.56033386628002,-5.694793057193696,ESP,EURO,0.00132575490283418,119,0.0014268703411108616,0.0013314916487952577,0.0012142416162926448,4,3,5,4
Gioia Tauro_Italy,port395,38.463398776609,15.913639211618914,ITA,EURO,0.00014061920875525088,109,0.0007094387529432126,0.0007548392197701744,0.0006699858157277724,0,1,4,1
Gisborne_New Zealand,port396,-38.675904032452685,178.0277768911794,NZL,AUST,2.4847132707414618e-05,56,9.491174122982383e-05,0.0003147415039477792,0.0004231360188941519,3,0,1,0
Gizo Harbor_Solomon Islands,port397,-8.103093595996622,156.8422133000033,SLB,AUST,0.0,2,2.3461963375001952e-06,2.763047953980418e-06,0.0001269553789495991,3,0,1,0
Gladstone_Australia,port398,-23.819079690458192,151.21552767768955,AUS,AUST,0.0016928936729921783,119,0.0017651863046820725,0.0018835968749633964,0.001603060204512557,3,0,1,0
Glasgow_United Kingdom,port399,55.87832297030618,-4.367557997346472,GBR,EURO,7.650562718890187e-05,99,0.00048621153927215374,0.0004125546622835379,0.00045317857860306367,4,3,5,4
Glomfjord_Norway,port400,66.81004692600077,13.936847064688877,NOR,EURO,0.0001686580730329185,102,0.0004698847309520889,0.0005262802513681505,0.0006005517434603293,4,3,5,4
Golcuk Burnu_Turkey,port401,40.7191964669835,29.866672643393184,TUR,ASIA,0.00034701107263678785,119,0.0010815329759367176,0.0009789414337959723,0.000866756336512686,0,1,4,1
Golfito_Costa Rica,port402,8.636992620480534,-83.16710591510046,CRI,NOAM,2.0295495772892494e-05,36,9.439158557378255e-05,0.0001277075319430751,0.00023941316950612794,1,4,2,2
Gomen_New Caledonia,port403,-20.759739759685505,164.40427974315105,NCL,AUST,1.814994639355425e-07,14,4.379737569243424e-05,8.989238519445699e-05,0.0001603833475401982,3,0,1,0
Goole_United Kingdom,port404,53.70030448943531,-0.884905633011416,GBR,EURO,6.767398349988341e-05,105,0.0006147742300849692,0.0005471532481033299,0.0006003267538526499,4,3,5,4
Goose Bay_Canada,port405,53.34292072174871,-60.39999747740323,CAN,NOAM,3.043474764013603e-06,10,3.453057338444392e-05,2.7196837532724802e-05,0.00017710527468736432,1,4,2,2
Gorgon LNG_Australia,port406,-20.79232174218242,115.45976156569424,AUS,AUST,8.787581724276972e-06,57,0.000346547274580432,0.00040949596857909893,0.00035418684320152796,3,0,1,0
Gorontalo_Indonesia,port407,0.5050228574338159,123.06489394062903,IDN,ASIA,8.484703757293381e-06,22,6.334541436139533e-05,6.004072680166539e-05,0.000254980023998652,3,0,1,0
Goteborg_Sweden,port408,57.70859886896139,11.889599436931674,SWE,EURO,0.0009382159717872856,115,0.0010562862579815572,0.0011025824693720427,0.0012110911452020002,4,3,5,4
Gourd Shanzui_China,port410,39.5346995700317,121.29824684077307,CHN,ASIA,0.00014048397021768067,119,0.0011006295802094082,0.001063084081762164,0.0007420313544250797,3,0,1,0
Gove_Australia,port411,-12.196955579238546,136.71669540589042,AUS,AUST,4.265672969561952e-06,65,0.0003153203714320624,0.0005397459709416259,0.0004008066749937676,3,0,1,0
Grand Haven_U.S.A.,port412,43.0510311590843,-86.2128084799724,USA,NOAM,1.1736526502395744e-06,18,1.243451086085651e-05,9.273299372477447e-06,0.0003443271479260215,1,4,2,2
Grand Isle_U.S.A.,port413,29.255100272447702,-89.96633396775194,USA,NOAM,0.0,1,6.62370373813853e-07,5.958411988609449e-07,0.00012278537763500718,1,4,2,2
Grand Turk_Turks and Caicos Islands,port414,21.43520362397885,-71.1478193515058,TCA,NOAM,5.6665868465929595e-06,9,2.2045656959527543e-05,1.3633911485824981e-05,0.0001940319580394767,1,4,2,2
Grangemouth_United Kingdom,port415,56.02124607713708,-3.68961592394568,GBR,EURO,0.0001364180662241704,105,0.0007135822201211207,0.00067971898278965,0.0007039734396602831,4,3,5,4
Gravesend_United Kingdom,port416,51.45052750387956,0.348941362582169,GBR,EURO,0.00014711735612880895,109,0.00042613105570198177,0.0008392789573224105,0.0008082028532713526,4,3,5,4
Great Yarmouth_United Kingdom,port417,52.58819977322659,1.7322182991927977,GBR,EURO,4.514082623828262e-05,99,0.0005003773029859442,0.00048743578312220905,0.000509409811859377,4,3,5,4
Green Bay_U.S.A.,port418,44.5226657221692,-88.02002332031127,USA,NOAM,3.795408982775055e-05,22,2.601564170565967e-05,4.2896145850247824e-05,0.00036716391788632787,1,4,2,2
Grenaa Havn_Denmark,port419,56.41625528657163,10.927040289647609,DNK,EURO,0.00013101726675573885,104,0.0005594511307905436,0.0005529065229318097,0.0006519588256758548,4,3,5,4
Gresik_Indonesia,port420,-7.140468237575886,112.64423495920768,IDN,ASIA,0.004522933001875841,119,0.0015745165971253168,0.0015074120925668865,0.0013964169486580698,3,0,1,0
Grimsby_United Kingdom,port421,53.57779578388495,-0.0766579280908841,GBR,EURO,4.5690567287566854e-05,100,0.00047956188477467403,0.00045610003182432234,0.0004819692504756412,4,3,5,4
Guaiba Island Terminal_Brazil,port422,-22.91555492047408,-43.78307644446807,BRA,SOAM,0.00046235548099588994,119,0.00110541627173475,0.0014772943698518816,0.0010843346385017404,1,4,2,2
Guangdong Yangjiang Port_China,port423,21.69554901618836,111.84157938381628,CHN,ASIA,0.0004267828565277436,119,0.0013293249165626758,0.0011827737183847681,0.0008852505363506091,3,0,1,0
Guangxi Beibu Gulf Port_China,port424,21.510878733983542,109.53853379032624,CHN,ASIA,0.00032049012215500827,119,0.0012559350873774268,0.001082523706448175,0.0008163423201234827,3,0,1,0
Guangzhou_China,port425,23.027540518197554,113.48360001642897,CHN,ASIA,0.005284145730384754,119,0.0024309038126112317,0.002071701562283979,0.001675150733667924,3,0,1,0
Guayaquil_Ecuador,port426,-2.261145668415041,-79.91891511541813,ECU,SOAM,0.0008519065512396405,112,0.0006793666405561691,0.0008699943235697625,0.00089062244301545,1,4,2,2
Guaymas_Mexico,port427,27.923313175810502,-110.86736420579368,MEX,NOAM,0.0003260506680437131,104,0.0008014235588626262,0.0004324581436313271,0.0004565852909378585,1,4,2,2
Gulfport_U.S.A.,port428,30.355639811363098,-89.0929266991794,USA,NOAM,6.2127712689976104e-06,36,0.00016842735051157259,0.00013556887381415466,0.00023311756355356874,1,4,2,2
Gulluk_Turkey,port429,37.25373920836195,27.60607436376908,TUR,ASIA,3.760076472299069e-05,74,0.0002997870520268646,0.00032706406346310517,0.0003788868313545231,0,1,4,1
Gustavia_Saint-Barthelemy,port430,17.902990257283047,-62.85264580554839,BLM,EURO,3.6926121678312905e-07,15,1.9465508848155873e-05,1.590188220841467e-05,0.0001833884724445757,1,4,2,2
Gwadar_Pakistan,port431,25.10895253750538,62.33856519252599,PAK,ASIA,1.1078346777424138e-08,7,3.7240082316195224e-05,4.024330815293644e-05,0.00012935672786717258,3,0,3,0
Gwangyang Hang_South Korea,port432,34.876697162565,127.71655329835136,KOR,ASIA,0.0022109902663679654,119,0.0020505868467412688,0.0019030384386273067,0.001554499150372503,3,0,1,0
Hachinohe Ko_Japan,port433,40.54513127462275,141.5108447857201,JPN,ASIA,0.0003803081541914288,119,0.001162938298245674,0.0012330810614650314,0.0010545932736932353,3,0,1,0
Hai Phong_Vietnam,port434,20.84406939448894,106.74748482091016,VNM,ASIA,0.001613739578957649,119,0.0017279053928346097,0.0015953562083031,0.0013296788093724093,3,0,1,0
Haifa_Israel,port435,32.81051126566313,35.03502309809758,ISR,ASIA,0.0008211660759630438,119,0.0011608306594760348,0.0013452396017128133,0.0011626898767327937,0,1,4,1
Haifeng power_China,port436,22.753415117395924,115.04385558392156,CHN,ASIA,2.3330227782716466e-06,55,0.0003466174999718405,0.00030925966114791966,0.00028624545760781874,3,0,1,0
Haikou_China,port437,20.03232282604763,110.28082679678306,CHN,ASIA,1.2936586051852278e-05,64,0.0004748319170566089,0.0005178609334362962,0.0004088054168994297,3,0,1,0
Haimen_China,port438,28.83311121382209,121.56258807891768,CHN,ASIA,4.0692650370615614e-05,88,0.0006798515901942352,0.0006604035456431675,0.0004854593890951147,3,0,1,0
Hakata_Japan,port439,33.63170192781617,130.39764973384786,JPN,ASIA,0.0003968058042603134,119,0.001083377158763623,0.00132446843525355,0.001100355825802988,3,0,1,0
Hakodate Ko_Japan,port440,41.79882812831512,140.69824466061647,JPN,ASIA,5.3232952453917725e-05,107,0.0007819823859772889,0.0007627122307618742,0.0006638561654900981,3,0,1,0
Halden_Norway,port441,59.11500065254765,11.375495550132188,NOR,EURO,1.1168700887367953e-05,74,0.0002932812987226665,0.0002354972616148067,0.0003500045016595478,4,3,5,4
Haldia Port_India,port442,22.057790602317784,88.10419444174183,IND,ASIA,0.0012626686874552507,119,0.0016227986455596276,0.0014249865916623997,0.0010835381262312334,3,0,3,0
Halifax_Canada,port443,44.6662319344433,-63.5718513763458,CAN,NOAM,0.000935816535362206,111,0.0006815936180218627,0.0007567966929418654,0.0009239520821578293,1,4,2,2
Halmstad_Sweden,port444,56.656462980661296,12.866349129899854,SWE,EURO,0.00012712071779071038,104,0.0006106120399125253,0.0006226412758463014,0.0007014107437624199,4,3,5,4
Hamada Ko_Japan,port445,34.87940375404148,132.05173556642626,JPN,ASIA,3.2451194580766726e-05,100,0.0005954648299510328,0.0006640396503601723,0.0005833791962894469,3,0,1,0
Hamburg_Germany,port446,53.51640055798953,9.964294337690005,DEU,EURO,0.005885076458789343,119,0.0023144185888161867,0.0022001461765181504,0.002293610069427246,4,3,5,4
Hamilton_Canada,port447,43.27190232495254,-79.81043225504946,CAN,NOAM,0.0016802819892486334,109,0.0005709773373699594,0.0006925543210093599,0.0008291487838055918,1,4,2,2
Hamina_Finland,port448,60.533174556564646,27.163095867060573,FIN,EURO,0.0004104150382424059,112,0.0009566779511079982,0.0008054656573776713,0.0008613879235620976,4,3,5,4
Hammerfest_Norway,port449,70.66196976756508,23.629076819372653,NOR,EURO,0.00023058750979233577,98,0.0005497407211515609,0.0004966893403665751,0.000586518599036626,4,3,5,4
Hanko_Finland,port450,59.82011054332949,22.92974015449436,FIN,EURO,1.952245149276564e-05,82,0.00028127100000730756,0.00036897311055572346,0.0004551528978108192,4,3,5,4
Hankow_China,port451,30.6127142612352,114.45807094680237,CHN,ASIA,2.608443141418969e-05,63,0.0004960146334755062,0.00043826691906700244,0.00037077749476516463,3,0,1,0
Hannan Ko_Japan,port452,34.45631450725545,135.3469588006463,JPN,ASIA,5.244381597834355e-05,100,0.0006214670159561419,0.0007061154051961829,0.0006520750606242548,3,0,1,0
Harbor Yeweiju_China,port453,38.08919470277768,118.94526262563812,CHN,ASIA,4.433507888881801e-05,106,0.0008658591675260109,0.000810652956221226,0.0005983180528632722,3,0,1,0
Harlingen_Netherlands,port454,53.18287729797657,5.428138300714165,NLD,EURO,0.0001746567707750503,106,0.0006428296344447172,0.0007041107618238794,0.0007550252902631938,4,3,5,4
Harmac_Canada,port455,49.1410403104077,-123.8657233386048,CAN,NOAM,9.159868788249516e-05,56,0.0002684397402448576,0.00033201967644235446,0.0003572508197590899,3,0,1,0
Haroysund_Norway,port456,62.86216178102622,7.062589196059834,NOR,EURO,9.562486101913796e-05,89,0.0002715830523289586,0.00044298485267327926,0.000563320498547685,4,3,5,4
Haydarpasa_Turkey,port457,41.00022011447736,29.015400419468733,TUR,ASIA,0.00010825404836313228,86,0.0004690258778211677,0.0004141641676836829,0.0004477942701699768,0,1,4,1
Haypoint_Australia,port458,-21.28124079171913,149.28745403108044,AUS,AUST,0.0005762885670852567,119,0.0014342893025456633,0.0015468625803191115,0.001113523355779322,3,0,1,0
Helsingborg_Sweden,port459,55.98575725015415,12.73910204216621,SWE,EURO,0.00025827710357381034,109,0.0008000623640690637,0.000759883531952876,0.0009073700333557321,4,3,5,4
Helsinki_Finland,port460,60.185863504208136,25.04678892946096,FIN,EURO,6.51457049330382e-05,93,0.00044261902939778287,0.0004106252716782262,0.0004791509939527802,4,3,5,4
Hera_Timor-Leste,port461,-8.536869778284451,125.689010434122,TLS,ASIA,3.97434173192654e-06,12,7.555227680148365e-05,6.513880226952767e-05,0.00014660570548818974,3,0,1,0
Heysham_United Kingdom,port462,54.03466480023062,-2.913479036363798,GBR,EURO,1.2747550232207733e-06,7,2.58458897933004e-05,2.277551600597432e-05,0.00015491061649549462,4,3,5,4
Higashi-Harima_Japan,port463,34.730680833545804,134.81346927964285,JPN,ASIA,0.000582371235789594,119,0.0014810360185911705,0.001491812625311378,0.0012186067790875936,3,0,1,0
Hilo_U.S.A.,port464,19.7277372402866,-155.0556259484286,USA,NOAM,1.543309864422611e-06,13,3.785810971572468e-05,4.5922091252761456e-05,0.00015837472183373596,1,4,2,2
Himeji_Japan,port465,34.7757991513156,134.63785896788627,JPN,ASIA,0.0004754463511168581,119,0.001284635001038588,0.001322704582594035,0.0011008677166827058,3,0,1,0
Hiroshima_Japan,port466,34.3474465774322,132.45577508201796,JPN,ASIA,0.00041482066185027466,118,0.0008469440189159946,0.0011253906398796633,0.0010171909491134134,3,0,1,0
Hirtshals_Denmark,port467,57.591607959596814,9.978419258789286,DNK,EURO,8.821522211100142e-05,94,0.00041778473894800997,0.00041316197655887695,0.0005312485215730359,4,3,5,4
Hitachi_Japan,port468,36.45195306038733,140.61582820359354,JPN,ASIA,0.0005363342038690049,119,0.001232540886068177,0.0012584503112374047,0.0010344931896780294,3,0,1,0
Hobart_Australia,port469,-42.84702724740917,147.32201965198996,AUS,AUST,0.001663978372698028,56,0.00020476654622069899,0.00030001790320036495,0.0005447547160158065,3,0,1,0
Hobro_Denmark,port470,56.639603471619,9.801145658795242,DNK,EURO,1.222107154663458e-05,73,0.00027679225910177453,0.0002446835677771156,0.0003366657378513012,4,3,5,4
Hofu_Japan,port471,34.02251033207972,131.57371762522862,JPN,ASIA,8.960593032983137e-05,100,0.0006702167732677453,0.0006859422071197691,0.0006597461860397512,3,0,1,0
Homikawa_Japan,port472,37.03543688718591,137.84438425579765,JPN,ASIA,1.983471859013692e-05,92,0.0005252252902649138,0.0005712508161367892,0.0005459762641982957,3,0,1,0
Hon Gai_Vietnam,port473,20.99454235603081,107.05483953033816,VNM,ASIA,0.00024481530347525914,119,0.001150968660810331,0.0009435439127434463,0.0007551241717366299,3,0,1,0
Hong Kong_Hong Kong,port474,22.33510926282908,114.09665194051334,HKG,ASIA,0.0027485002821098867,119,0.0018759976006194653,0.002006459132441626,0.0017348386926052898,3,0,1,0
Honiara_Solomon Islands,port475,-9.422319397144276,159.99464401126752,SLB,AUST,0.0007897520499798926,42,0.00015778109985149219,0.00024517781487746267,0.0004391596608975057,3,0,1,0
Honolulu_U.S.A.,port476,21.32896919368942,-157.90351290034408,USA,NOAM,0.0009633315652281526,80,0.0005396176306529769,0.0003962735828402421,0.0005128706271483804,3,4,1,0
Hopa_Turkey,port477,41.41066171185562,41.430800328423885,TUR,ASIA,2.9808561064104907e-06,34,0.0001459482633213333,0.00014438089008858655,0.00024900547459998085,0,1,4,1
Horta_Portugal,port478,38.533021955431416,-28.62154370336685,PRT,EURO,5.33612750990252e-08,7,4.4807496587995225e-05,2.0399296725735643e-05,0.00012675917962061707,4,3,5,4
Horten_Norway,port479,59.41280583000581,10.490046502765368,NOR,EURO,1.600032220307785e-05,74,0.000288388074124535,0.00020872875738148393,0.00034736445192419416,4,3,5,4
Hososhima Ko_Japan,port480,32.482427921414576,131.67069008792524,JPN,ASIA,3.087142414882302e-05,88,0.0004991982832525027,0.000509950734079166,0.0005232507446599591,3,0,1,0
Houston_U.S.A.,port481,29.720231142824687,-95.13978774329904,USA,NOAM,0.013345698039391994,119,0.003055487230433336,0.0028869187099903673,0.003036526527229956,1,4,2,2
Hua-Lien Kang_Taiwan,port482,23.98211048722533,121.6278977236636,TWN,ASIA,7.025580211105498e-06,47,0.0002530768992561762,0.0002604326681038606,0.0002687228313447386,3,0,1,0
Huelva_Spain,port483,37.1931289090272,-6.914657869368037,ESP,EURO,0.0030291450853884763,119,0.0016694946498355683,0.0018859946633187252,0.0017440807456360207,0,1,4,1
Huizhou_China,port484,22.734820631529093,114.59822869041966,CHN,ASIA,4.149708447018857e-05,96,0.000724097111833449,0.000713641973299368,0.000538214034078606,3,0,1,0
Husum_Germany,port485,54.471570264316135,9.03643471225934,DEU,EURO,7.00456771189328e-06,55,0.00028373590909387713,0.0002762683192402323,0.0003050356607350649,4,3,5,4
Husum_Sweden,port486,63.322988588159774,19.1651976756617,SWE,EURO,0.00011594527265106244,93,0.0003177634418042827,0.0004105688555719091,0.0005134857074967097,4,3,5,4
Ijmuiden_Netherlands,port487,52.47671568670087,4.617278255742376,NLD,EURO,0.0031169945449795655,119,0.0014041465802406307,0.0015827152587167955,0.0016582481731455241,4,3,5,4
Iligan_Philippines,port488,8.232619905428662,124.2274676734174,PHL,ASIA,0.0003457154229960513,100,0.0006323076625636414,0.0005873841817492679,0.00056301310550673,3,0,1,0
Illichivsk_Ukraine,port489,46.33159947473917,30.656566222694067,UKR,EURO,0.0020052113870487926,119,0.001966576528058782,0.0016060738915106034,0.001398487475378112,0,1,4,1
Imabari Ko_Japan,port490,34.06015622302013,133.0189334757723,JPN,ASIA,7.700637443292652e-06,82,0.000406194009400072,0.00047336129012750275,0.0004988166599943769,3,0,1,0
Imatra_Finland,port491,61.23687321510792,28.83198597855262,FIN,EURO,7.84544544909358e-05,56,0.00019393560024452214,0.000261501067012251,0.0003794225166293462,4,3,5,4
Imbituba_Brazil,port492,-28.230793911959594,-48.65333432467353,BRA,SOAM,0.00023612308182364506,109,0.0005434161217897772,0.0006824386901893663,0.0007175029116324088,1,4,2,2
Immingham_United Kingdom,port493,53.64188520539394,-0.226276065487717,GBR,EURO,0.002496719530436649,119,0.001753810400264745,0.001785921798735898,0.0018445373612740582,4,3,5,4
Inchon_South Korea,port494,37.44435778450925,126.62008235060642,KOR,ASIA,0.0017549627779719973,119,0.0016213370855614887,0.0018611120472075504,0.0015488086298844443,3,0,1,0
Indiana Harbor_U.S.A.,port495,41.66731564046277,-87.44841938222207,USA,NOAM,1.7641743535493892e-05,19,2.580047174704852e-05,2.322500089156802e-05,0.00036268869434562284,1,4,2,2
Indonesia Morowali Industrial Park_Indonesia,port496,-2.821666592497149,122.1691428204126,IDN,ASIA,0.0007738698555898359,119,0.0012200924123949575,0.0011587982119962397,0.0009463124727181277,3,0,1,0
Inkoo_Finland,port497,60.01761236786758,23.92754542449529,FIN,EURO,2.480264603637782e-05,94,0.0003419136968388557,0.0004360060246293169,0.0005297773086373571,4,3,5,4
Ipswich_United Kingdom,port498,52.037021315078725,1.161808504314334,GBR,EURO,0.0002300018327994324,109,0.0008635668965608137,0.0008342940124324615,0.0008279210338316252,4,3,5,4
Iquique_Chile,port499,-20.206006793798284,-70.15848484286388,CHL,SOAM,3.6041178491447936e-05,54,0.0002419701178852903,0.00017532103010118862,0.00027362775154092907,1,4,2,2
Iraklion_Greece,port500,35.34423683166174,25.14697525626209,GRC,EURO,6.182345444320282e-06,49,0.0001949357719760873,0.00020831862645022983,0.00031662927453203395,0,1,4,1
Ishikari Bay New Port_Japan,port501,43.200962619609456,141.29231877319756,JPN,ASIA,7.894096949477454e-05,103,0.0006319849048250126,0.0006285495793541531,0.0005785011193915115,3,0,1,0
Ishinomaki Ko_Japan,port502,38.41415253167843,141.2776945891792,JPN,ASIA,0.00019556783992362846,116,0.000928208562504361,0.0009026500439294402,0.0007916642944510888,3,0,1,0
Iskenderun_Turkey,port503,36.60077591152603,36.1931202623752,TUR,ASIA,0.0007196577258109998,119,0.0009775870121062381,0.0011784278592212947,0.0010417490357833177,0,1,4,1
Istanbul_Turkey,port504,40.96999344271692,28.73553234047545,TUR,ASIA,0.005928309345942198,119,0.0021344678892523936,0.0019007549716694744,0.0018656554009508434,0,1,4,1
Itajai_Brazil,port505,-26.89391722362228,-48.66739362744734,BRA,SOAM,1.5571381790099942e-05,47,0.00022142580663000208,0.00022350873817927652,0.0003248382121818166,1,4,2,2
Itaqui_Brazil,port506,-2.627113567917025,-44.353492874739295,BRA,SOAM,0.0030731109722253814,119,0.0019417303930046672,0.002445626779093329,0.0020265317219535562,1,4,2,2
Iverness_United Kingdom,port507,57.49032353029145,-4.232214132173733,GBR,EURO,1.938213968313366e-05,61,0.00021391000537910286,0.0002223200976627404,0.0003298187677965755,4,3,5,4
Iwakuni Ko_Japan,port508,34.20374226174784,132.23695979307246,JPN,ASIA,0.00042275266715561464,119,0.0010572890077981344,0.0009672828839326546,0.0009113768234330916,3,0,1,0
Izhevskoye_Russia,port509,54.68428825299599,20.174927287475462,RUS,EURO,0.0010576873535161433,115,0.0010465138491798848,0.0010838984973538012,0.001235606566010815,4,3,5,4
Izmir_Turkey,port510,38.443157702970176,27.15610908859993,TUR,ASIA,0.0009366717119301908,119,0.0010401914675212474,0.0011677165884890896,0.0011239688204784885,0,1,4,1
JSW Jaigad Port Limited_India,port511,17.29523508561033,73.21867271732341,IND,ASIA,7.331531799298643e-05,119,0.000698180560219597,0.000699306525375607,0.0005268553377040258,3,0,3,0
Jabal Az Zannah-Ruways_United Arab Emirates,port512,24.126975861488557,52.71021364176625,ARE,ASIA,0.001088954874864501,119,0.001783373966391826,0.0016165250613733493,0.001212210063407853,3,0,3,0
Jacksonville_U.S.A.,port513,30.38332610104772,-81.58303357119681,USA,NOAM,0.0004543521764661548,114,0.0007645393625916413,0.0007084517320696384,0.0007905023733567961,1,4,2,2
Jakarta_Indonesia,port514,-6.100544626576063,106.90548758886754,IDN,ASIA,0.0043871758371508696,119,0.0016678910102072139,0.0018123879662887527,0.0016592301248546312,3,0,1,0
Jakobstad_Finland,port515,63.70701980015269,22.70384731749784,FIN,EURO,5.941526508886172e-05,101,0.0003981000015516106,0.00048306501708728365,0.0005656093961853802,4,3,5,4
Jayapura_Indonesia,port516,-2.535491566857201,140.71916636481302,IDN,ASIA,5.542152851776215e-06,21,6.941883179230179e-05,7.952920995069338e-05,0.00022212842261828275,3,0,1,0
Jiangyin_China,port517,31.932403847897216,120.15934072222991,CHN,ASIA,0.0011507298241504394,119,0.002004202778308176,0.0017620333888126178,0.0013062766642693523,3,0,1,0
Jiddah Oil_Saudi Arabia,port519,20.652582960131145,39.54249452361609,SAU,ASIA,1.3277538931509414e-07,15,0.00013314293744644826,9.362697500369668e-05,0.00015762968994547633,3,1,3,0
Jiddah_Saudi Arabia,port518,21.46079659351468,39.16640594273001,SAU,ASIA,0.0018171397076271764,119,0.0017537756090995147,0.0017690649268387753,0.001336453697234431,3,1,3,0
Jimenez_Philippines,port520,8.26033617463559,123.8533364261333,PHL,ASIA,2.481122436428588e-05,34,0.0001471124124041978,0.00018969451427171678,0.0002433968155976806,3,0,1,0
Jinzhou Wan_China,port521,40.77754886559429,121.0180678115044,CHN,ASIA,0.0008563476434864946,119,0.0015251058550415871,0.0016649736146053013,0.0012418236838111709,3,0,1,0
Joensuu_Finland,port522,62.58351672025907,29.75262890937756,FIN,EURO,3.221265289472644e-05,43,0.00017691406057752834,0.00016217055135089265,0.0002802441237711543,4,3,5,4
Johor_Malaysia,port523,1.4574505346135187,103.91990420193116,MYS,ASIA,0.0045340481888408455,119,0.0020656403175012767,0.0020897061575351475,0.0018159600139856435,3,0,1,0
Jose Terminal_Venezuela,port524,10.06758499444423,-64.8679501611048,VEN,SOAM,0.00023857277043609073,71,0.0003698559929227279,0.0003836204189180257,0.0004829656206029538,1,4,2,2
Joutseno_Finland,port525,61.13348446212868,28.4612400899319,FIN,EURO,1.1055225660020045e-05,23,0.00010754062273003907,1.6929428599013763e-05,0.0001781126472683211,4,3,5,4
Ju Aymah LPG Terminal_Saudi Arabia,port526,26.80319051351993,49.97698013064791,SAU,ASIA,8.649285638161903e-05,102,0.0007862212563839745,0.0007726387063827205,0.0005994248512781314,3,0,3,0
Kaba Burnu_Turkey,port527,40.766564651085766,29.544515270102337,TUR,ASIA,0.0034524023624956184,119,0.0016818862149820526,0.001817170715018119,0.001752933922071839,0,1,4,1
Kagoshima Ko_Japan,port528,31.532842716137854,130.54247331424662,JPN,ASIA,0.00013631592551541946,117,0.0007833536251448844,0.001045300400744744,0.0008451258874908957,3,0,1,0
Kakinada Bay_India,port529,16.987073954938268,82.2718926251268,IND,ASIA,0.00038135653148094596,119,0.0010253027733833106,0.0011774895449733038,0.0008381471562918935,3,0,3,0
Kaliningrad_Russia,port530,54.69722330187834,20.452897483137303,RUS,EURO,0.00042904463011178036,109,0.0007978408118828091,0.0008240902486053534,0.0009730222476527601,4,3,5,4
Kalmar_Sweden,port531,56.65789386038901,16.36932541955906,SWE,EURO,2.3023644567176675e-05,101,0.00043320995267609827,0.0005101436982292178,0.0006116743721258791,4,3,5,4
Kalundborg_Denmark,port532,55.665867465647246,11.100603982134244,DNK,EURO,0.0005043744536284283,115,0.000965606226303678,0.0010525155409240455,0.0010866830924026725,4,3,5,4
Kamaishi Ko_Japan,port533,39.26776263569475,141.8897678768986,JPN,ASIA,1.102986027097289e-05,68,0.00037328662942652844,0.00029979014851301935,0.00031693604552777375,3,0,1,0
Kamarajar Port_India,port534,13.279330992136853,80.33854581409155,IND,ASIA,0.0002718786336490713,119,0.0011455146095022406,0.0013669699224092612,0.0009323171307603445,3,0,3,0
Kampong Saom_Cambodia,port535,10.679000043415694,103.52745655562846,KHM,ASIA,7.137953397879768e-05,96,0.000589721488165036,0.0006596114252505171,0.0005000427844537031,3,0,1,0
Kamsar_Guinea,port536,10.64818174581655,-14.606813167682382,GIN,AFRI,0.00026512033252242917,119,0.0007594503217285639,0.0010963836522002988,0.0008094501697895026,0,1,4,1
Kanazawa_Japan,port537,36.616539033500665,136.6143047443885,JPN,ASIA,2.5227570367796895e-05,96,0.0006143650314453349,0.000539851630871505,0.0005219095818344668,3,0,1,0
Kanda_Japan,port538,33.82174514927828,130.99286330169227,JPN,ASIA,0.0005500587285394618,119,0.0010571452210482847,0.0013388047622292963,0.0011427386366112751,3,0,1,0
Kandalaksha_Russia,port539,67.13719139503698,32.40908463971715,RUS,EURO,2.6206618410549806e-06,40,0.00017762718374897656,0.0002913863820120419,0.00027637668747810786,4,3,5,4
Kandla_India,port540,23.00911919866315,70.21565487207272,IND,ASIA,0.004224982931608305,119,0.002218520124756179,0.002332595580435457,0.001882286609902683,3,0,3,0
Kao Hsiung_Taiwan,port541,22.561527802321525,120.322684663521,TWN,ASIA,0.012808917497334541,119,0.0027737800827804847,0.002611296766820462,0.0025178483464016414,3,0,1,0
Karabiga_Turkey,port542,40.43477315173524,27.17613452262349,TUR,ASIA,0.0005351534204152478,118,0.0009114298634348664,0.0008081382547043366,0.0007967529126811047,0,1,4,1
Karachi_Pakistan,port543,24.823274712589168,66.98321717869763,PAK,ASIA,0.0006886619324263046,119,0.0012691397590636356,0.0012963579871335233,0.0009618043201873641,3,0,3,0
Karaikal Port_India,port544,10.840533690848298,79.84255846567146,IND,ASIA,6.511582475921365e-05,109,0.00047409314320611356,0.0007111649341360291,0.0005275437383431236,3,0,3,0
Karatsu_Japan,port545,33.47638831369121,129.95492157143448,JPN,ASIA,3.4989749964869734e-05,84,0.0005002130164615354,0.0005179793176724904,0.00047308689146061627,3,0,1,0
Karlshamn_Sweden,port546,56.16106721484038,14.79940067409076,SWE,EURO,0.00016854890631116078,105,0.0006793324051760486,0.0007154928179982634,0.0008270038092899314,4,3,5,4
Karsto_Norway,port547,59.27511179271296,5.505238180253956,NOR,EURO,9.198550846839611e-05,102,0.0006326742881933167,0.0006563561602060099,0.0006253582896894297,4,3,5,4
Kashima Ko_Japan,port548,35.9165624863423,140.6899197765725,JPN,ASIA,0.001553484503873275,119,0.0018019741997696572,0.001807504506695913,0.0014766096890160417,3,0,1,0
Kasim Terminal_Indonesia,port549,-1.3139518607166152,131.02644113047552,IDN,ASIA,3.2556080491710025e-06,13,5.975381259322824e-05,5.6218267730439736e-05,0.00018717862670750927,3,0,1,0
Kaskinen_Finland,port550,62.35643768508236,21.218975752254927,FIN,EURO,9.412263810724584e-05,101,0.0004925280554644313,0.00039003055629191957,0.0005283453343436199,4,3,5,4
Kaukas_Finland,port551,61.06932264359271,28.237160203235657,FIN,EURO,2.5324322367610673e-06,7,1.2162869601668692e-05,2.7555324135499524e-05,0.0001566380143307193,4,3,5,4
Kavala_Greece,port552,40.9541586073284,24.49991078614205,GRC,EURO,0.00016755353247900796,110,0.0006559457431960773,0.0007110478964339441,0.0007194251720648938,0,1,4,1
Kavieng Harbor_Papua New Guinea,port553,-2.587475462392643,150.7887673537413,PNG,AUST,0.0002256046338852043,41,0.00018309041812177636,0.00025278466362233106,0.00034179079005224565,3,0,1,0
Kavkaz Oil Terminal_Russia,port554,45.33614507714142,36.66778575916095,RUS,EURO,0.00010039412623796876,69,0.00036295729455575285,0.0003393537478983565,0.00041933460166212967,0,1,4,1
Kawasaki Ko_Japan,port555,35.50702516990109,139.74847050240135,JPN,ASIA,0.001606840223383484,119,0.0017896532661393603,0.0017260702775233575,0.0015302719313993402,3,0,1,0
Kemaman Harbor_Malaysia,port556,4.25750312896581,103.4591110757117,MYS,ASIA,0.0004169154041835254,119,0.0009222684356678572,0.0010485668910818592,0.0008719325896351123,3,0,1,0
Kemi_Finland,port557,65.66568484623765,24.524142492331386,FIN,EURO,3.253204608551711e-05,94,0.0003420718093150761,0.00045581636237109114,0.0005346190089466142,4,3,5,4
Kendari_Indonesia,port558,-3.978833534152565,122.60450438724538,IDN,ASIA,4.239901351773674e-05,34,0.0001133711420879334,0.00014384967934432131,0.00030874006990469846,3,0,1,0
Kerch_Ukraine,port559,45.3375359948972,36.463933987942575,UKR,EURO,9.323307603694529e-06,14,6.609883078478098e-05,4.920554047599655e-05,0.00015661583258621704,0,1,4,1
Khalifa Bin Salman_Bahrain,port560,26.25449914637828,50.67669655516691,BHR,ASIA,0.0,1,8.63811301653593e-06,8.717993529244298e-06,0.00011212985896301454,3,0,3,0
Khawr Fakkan_United Arab Emirates,port561,25.353688582082544,56.36875483995494,ARE,ASIA,3.314909539596414e-06,42,0.00021286026652871798,0.00021632419124368115,0.00026912236477183053,3,0,3,0
Khoms_Libya,port562,32.67784227160238,14.24506822696737,LBY,AFRI,4.678660944319413e-05,91,0.0005039915699275447,0.0004736386852378791,0.00046216913246241377,0,1,4,1
Khorramshahr_Iran,port563,30.443603337272084,48.154399644827855,IRN,ASIA,4.3064518169169935e-06,13,5.427661304642745e-05,5.3214671071880495e-05,0.00021352877927258124,3,0,3,0
Kiel_Germany,port564,54.3251823007765,10.158969876423336,DEU,EURO,5.705812699995623e-05,101,0.00046440976578648635,0.00041454787602840756,0.0005190458426873889,4,3,5,4
Kieta_Papua New Guinea,port565,-6.218768246912848,155.63839899873028,PNG,AUST,1.5591878368077592e-06,6,7.712541060779162e-06,4.202652272764082e-06,0.00018448172361695394,3,0,1,0
Kiire_Japan,port566,31.38796044280607,130.54855349544624,JPN,ASIA,1.8583465386713543e-05,58,0.00033466002060071614,0.000431414141482304,0.00037174750926959965,3,0,1,0
Kikuma Ko_Japan,port567,34.05365925975023,132.86212114082386,JPN,ASIA,9.794411124462829e-05,107,0.0008070652734358401,0.0007978561435062893,0.0007000568259408927,3,0,1,0
Kilifi_Kenya,port568,-3.638840564304184,39.84518375838605,KEN,AFRI,0.0,1,3.7485442169898196e-08,7.36777667110887e-08,0.00018390519912971608,3,0,3,0
Kimbe_Papua New Guinea,port569,-5.550273175850555,150.14724871320072,PNG,AUST,0.0005232124130444566,54,0.00029347601633136224,0.0002919158879014232,0.00043484562450395577,3,0,1,0
King Fahd Port_Saudi Arabia,port570,23.95087467803486,38.27170364817133,SAU,ASIA,0.0011827093032621575,119,0.001590738893074459,0.0015614852341793188,0.0011640982478427276,3,1,3,0
King's Lynn_United Kingdom,port571,52.76469448705916,0.3924313663154189,GBR,EURO,4.501242942061012e-05,102,0.0005163118383166091,0.00045980787147162074,0.0005069268624860158,4,3,5,4
Kingston Upon Hull_United Kingdom,port573,53.74056585179428,-0.2637847733539634,GBR,EURO,0.0009849884270074448,115,0.0011503357968195079,0.0011326121912386409,0.0012576235322731477,4,3,5,4
Kingston_Jamaica,port572,17.982903805338328,-76.80443674927994,JAM,NOAM,0.0035818775668019632,117,0.00100573911048155,0.0009826350812347554,0.0013074272213154047,1,4,2,2
Kingstown_Saint Vincent and the Grenadines,port574,13.158941901464766,-61.23551139432696,VCT,NOAM,0.0002202070637323265,43,0.00010762810751716728,0.00010499098893193295,0.0004350580490652636,1,4,2,2
Kinuura Ko_Japan,port575,34.873879735031984,136.95343655370723,JPN,ASIA,0.00039497015623465783,119,0.0012853282496861312,0.0012947998394905024,0.0010431631687650646,3,0,1,0
Kiribati_Kiribati,port576,2.007167485693696,-157.48621602883142,KIR,AUST,2.719767720479714e-05,18,8.26452365488691e-05,8.045026526941774e-05,0.0002313275739344757,3,0,1,0
Kirteh Oil Terminal_Malaysia,port577,4.574618296210868,103.45283402725065,MYS,ASIA,4.6252494624922255e-06,42,0.0002497889660000335,0.0002547969123290647,0.0002483680181890657,3,0,1,0
Kisarazu Ko_Japan,port578,35.359021465146704,139.86810777050732,JPN,ASIA,0.0008430470309962437,119,0.0015970226712246226,0.0014369512577490095,0.0012419674348664762,3,0,1,0
Klaipeda_Lithuania,port579,55.68422129969725,21.138120978580748,LTU,EURO,0.008117934940172376,119,0.002539174342351121,0.0018723540584185787,0.0020295185101618404,4,3,5,4
Kobe_Japan,port581,34.67293988896983,135.22932705230667,JPN,ASIA,0.0024371923674365546,119,0.0018409160685506005,0.00172619287224789,0.0016210045031595146,3,0,1,0
Kobenhavn_Denmark,port582,55.69510321588264,12.615333521024915,DNK,EURO,0.00041510145903546136,109,0.0008389186446685761,0.0008373463524258603,0.000917219206787738,4,3,5,4
